{"type":"FeatureCollection","totalFeatures":2227,"features":[{"type":"Feature","id":"salud2012_publicos.1","geometry":{"type":"Point","coordinates":[-60.190467622999904,-33.36124339999992]},"geometry_name":"geom","properties":{"objectid":1,"nompar":"SAN NICOLAS","nombre":"C.P.S. LOS PROVINCIANOS","codigo":"76300627","jurisdicci":"MUNI","rsanit_08":"IV","tipo_est":"esidt","loc":"San Nicolás","cp":"2900","direccion":"Ruta 188 y Rotonda Sur Bo. Provincianos","tel":"-","email":null,"camas":0}},{"type":"Feature","id":"salud2012_publicos.2","geometry":{"type":"Point","coordinates":[-58.53932711199991,-34.570762879999904]},"geometry_name":"geom","properties":{"objectid":2,"nompar":"GENERAL SAN MARTIN","nombre":"HTAL.de DIA P. RIVIERE","codigo":"37100670","jurisdicci":"MUNI","rsanit_08":"V","tipo_est":"esit","loc":"General San Martín","cp":"1650","direccion":"Ramón Falcón N° 3354","tel":"011-48300562/0317","email":null,"camas":0}},{"type":"Feature","id":"salud2012_publicos.3","geometry":{"type":"Point","coordinates":[-58.73116178499993,-34.525084756999945]},"geometry_name":"geom","properties":{"objectid":3,"nompar":"JOSE C. PAZ","nombre":"C.A. 1º NIVEL","codigo":"41201082","jurisdicci":"MUNI","rsanit_08":"V","tipo_est":"ec","loc":"José C. Paz","cp":"1665","direccion":"Chile y Castelar S/N","tel":"02320-440800","email":null,"camas":0}},{"type":"Feature","id":"salud2012_publicos.4","geometry":{"type":"Point","coordinates":[-58.57200644299991,-34.62089736599995]},"geometry_name":"geom","properties":{"objectid":4,"nompar":"TRES DE FEBRERO","nombre":"P.S. DR. RAMÓN CARRILLO","codigo":"84000420","jurisdicci":"MUNI","rsanit_08":"VII","tipo_est":"esidt","loc":"Villa Pineral","cp":"1678","direccion":"Olavarría N°4099","tel":"011-46548547","email":null,"camas":0}},{"type":"Feature","id":"salud2012_publicos.5","geometry":{"type":"Point","coordinates":[-59.873176471999955,-33.658925979999935]},"geometry_name":"geom","properties":{"objectid":5,"nompar":"SAN PEDRO","nombre":"HTAL. L. 26 DE JULIO GDOR CASTRO","codigo":"77000015","jurisdicci":"MUNI","rsanit_08":"IV","tipo_est":"ecig","loc":"Gobernador Castro","cp":"2946","direccion":"Tucumán N° 117","tel":"03329-493400","email":"hso.sanpedro@resdp.com.ar","camas":8}},{"type":"Feature","id":"salud2012_publicos.6","geometry":{"type":"Point","coordinates":[-59.63837467499991,-33.7683169309999]},"geometry_name":"geom","properties":{"objectid":6,"nompar":"SAN PEDRO","nombre":"C.S. DR ARANA RIO TALA","codigo":"77000031","jurisdicci":"MUNI","rsanit_08":"IV","tipo_est":"ecig","loc":"Río Tala","cp":"2930","direccion":"Mitre S/N","tel":"03329-498346","email":null,"camas":2}},{"type":"Feature","id":"salud2012_publicos.7","geometry":{"type":"Point","coordinates":[-59.82087782799994,-33.904296942999906]},"geometry_name":"geom","properties":{"objectid":7,"nompar":"SAN PEDRO","nombre":"C.S. PUEBLO DOYLE","codigo":"77000163","jurisdicci":"MUNI","rsanit_08":"IV","tipo_est":"esidt","loc":"Santa Lucía","cp":"2935","direccion":"Ruta 191 Km. 27","tel":"-","email":null,"camas":0}},{"type":"Feature","id":"salud2012_publicos.8","geometry":{"type":"Point","coordinates":[-59.87427786399991,-33.87958220599995]},"geometry_name":"geom","properties":{"objectid":8,"nompar":"SAN PEDRO","nombre":"HTAL. SANTA LUCIA","codigo":"77000082","jurisdicci":"MUNI","rsanit_08":"IV","tipo_est":"ecig","loc":"Santa Lucía","cp":"2935","direccion":"San Lorenzo N° 250","tel":"03329-491370","email":null,"camas":68}},{"type":"Feature","id":"salud2012_publicos.9","geometry":{"type":"Point","coordinates":[-59.81472243299993,-33.5970871209999]},"geometry_name":"geom","properties":{"objectid":9,"nompar":"SAN PEDRO","nombre":"C.S. VUELTA DE OBLIGADO","codigo":"77000023","jurisdicci":"MUNI","rsanit_08":"IV","tipo_est":"esidt","loc":"Vuelta de Obligado","cp":"2930","direccion":"Calle 25 e/ 13 y 14","tel":"03329-423089","email":null,"camas":0}},{"type":"Feature","id":"salud2012_publicos.10","geometry":{"type":"Point","coordinates":[-60.10775211899994,-34.0636528629999]},"geometry_name":"geom","properties":{"objectid":10,"nompar":"ARRECIFES","nombre":"HTAL. M. STA. FRANCISCA ROMANA","codigo":"07700028","jurisdicci":"MUNI","rsanit_08":"IV","tipo_est":"ecig","loc":"Arrecifes","cp":"2740","direccion":"Av.  Merlassino N° 791","tel":"02478-451327","email":null,"camas":92}},{"type":"Feature","id":"salud2012_publicos.11","geometry":{"type":"Point","coordinates":[-58.661536499999954,-34.48424249599992]},"geometry_name":"geom","properties":{"objectid":11,"nompar":"TIGRE","nombre":"U.S. ALTE. BROWN","codigo":"80500045","jurisdicci":"MUNI","rsanit_08":"V","tipo_est":"esidt","loc":"El Talar de Pacheco","cp":"1648","direccion":"Gral. Andrés Nº 3050 y esq. Alemania","tel":"011-45129986","email":null,"camas":0}},{"type":"Feature","id":"salud2012_publicos.12","geometry":{"type":"Point","coordinates":[-58.682484840999905,-34.45860348499991]},"geometry_name":"geom","properties":{"objectid":12,"nompar":"TIGRE","nombre":"C.S. RICARDO ROJAS","codigo":"80500096","jurisdicci":"MUNI","rsanit_08":"V","tipo_est":"esidt","loc":"El Talar de Pacheco","cp":"1648","direccion":"Richieri y Elizalde","tel":"011-45129988","email":null,"camas":0}},{"type":"Feature","id":"salud2012_publicos.13","geometry":{"type":"Point","coordinates":[-58.66074951999991,-34.46336437799994]},"geometry_name":"geom","properties":{"objectid":13,"nompar":"TIGRE","nombre":"C.S. LA PALOMA","codigo":"80500266","jurisdicci":"MUNI","rsanit_08":"V","tipo_est":"esidt","loc":"General  Pacheco","cp":"1617","direccion":"Av. La Paloma e/Paraguay y Monteagudo","tel":"011-45129985","email":null,"camas":0}},{"type":"Feature","id":"salud2012_publicos.14","geometry":{"type":"Point","coordinates":[-58.693154672999924,-34.41396367899995]},"geometry_name":"geom","properties":{"objectid":14,"nompar":"TIGRE","nombre":"C.S. BENAVIDEZ","codigo":"80500011","jurisdicci":"MUNI","rsanit_08":"V","tipo_est":"esidt","loc":"Benavídez","cp":"1621","direccion":"Alvear y Marabotto","tel":"03327-482904","email":null,"camas":0}},{"type":"Feature","id":"salud2012_publicos.15","geometry":{"type":"Point","coordinates":[-58.687538409999945,-34.357239989999925]},"geometry_name":"geom","properties":{"objectid":15,"nompar":"TIGRE","nombre":"C.S. Nº 9 DIQUE LUJAN","codigo":"80500029","jurisdicci":"MUNI","rsanit_08":"V","tipo_est":"esidt","loc":"Benavídez","cp":"1621","direccion":"9 de Julio y 12 de Octubre Nº 943","tel":"03488-444467","email":null,"camas":0}},{"type":"Feature","id":"salud2012_publicos.16","geometry":{"type":"Point","coordinates":[-58.6266551679999,-34.50048549399992]},"geometry_name":"geom","properties":{"objectid":16,"nompar":"TIGRE","nombre":"C.S. DON TORCUATO","codigo":"80500215","jurisdicci":"MUNI","rsanit_08":"V","tipo_est":"esidt","loc":"Don Torcuato","cp":"1611","direccion":"Arata y España","tel":"011-45132533","email":null,"camas":0}},{"type":"Feature","id":"salud2012_publicos.17","geometry":{"type":"Point","coordinates":[-58.71575611399993,-34.40660511599992]},"geometry_name":"geom","properties":{"objectid":17,"nompar":"TIGRE","nombre":"C.S. El ARCO","codigo":"80500321","jurisdicci":"MUNI","rsanit_08":"V","tipo_est":"esidt","loc":"Benavídez","cp":"1621","direccion":"Tomás Godoy Nº 1186","tel":"03327-485755","email":null,"camas":0}},{"type":"Feature","id":"salud2012_publicos.18","geometry":{"type":"Point","coordinates":[-58.6640721789999,-34.440152593999926]},"geometry_name":"geom","properties":{"objectid":18,"nompar":"TIGRE","nombre":"C.S. LAS TUNAS","codigo":"80500339","jurisdicci":"MUNI","rsanit_08":"V","tipo_est":"esidt","loc":"General  Pacheco","cp":"1617","direccion":"Sacristi y Mosconi","tel":"03327-441044","email":null,"camas":0}},{"type":"Feature","id":"salud2012_publicos.19","geometry":{"type":"Point","coordinates":[-58.6025949669999,-34.41487779899995]},"geometry_name":"geom","properties":{"objectid":19,"nompar":"TIGRE","nombre":"C.S. RINCON DE MILBERG","codigo":"80500380","jurisdicci":"MUNI","rsanit_08":"V","tipo_est":"esidt","loc":"Tigre","cp":"1648","direccion":"Santa María al 3000 esq. Irala","tel":"011-45124517","email":null,"camas":0}},{"type":"Feature","id":"salud2012_publicos.20","geometry":{"type":"Point","coordinates":[-58.58255996199995,-34.43609762299991]},"geometry_name":"geom","properties":{"objectid":20,"nompar":"TIGRE","nombre":"C.S. VA. CARUPA","codigo":"80500461","jurisdicci":"MUNI","rsanit_08":"V","tipo_est":"esidt","loc":"Tigre","cp":"1648","direccion":"Sarmiento e/Alvear y Saavedra","tel":"011-45124513","email":null,"camas":0}},{"type":"Feature","id":"salud2012_publicos.21","geometry":{"type":"Point","coordinates":[-59.1114538139999,-34.287120657999935]},"geometry_name":"geom","properties":{"objectid":21,"nompar":"EXALTACION DE LA CRUZ","nombre":"HTAL. MUN. SAN JOSE","codigo":"26600018","jurisdicci":"MUNI","rsanit_08":"V","tipo_est":"ecig","loc":"Capilla del Señor","cp":"2812","direccion":"Migliaro N° 966","tel":"02323-491344","email":null,"camas":56}},{"type":"Feature","id":"salud2012_publicos.22","geometry":{"type":"Point","coordinates":[-60.589036146999945,-33.887188748999904]},"geometry_name":"geom","properties":{"objectid":22,"nompar":"PERGAMINO","nombre":"C.A.P. 12 DE OCTUBRE","codigo":"62300322","jurisdicci":"MUNI","rsanit_08":"IV","tipo_est":"esidt","loc":"Pergamino","cp":"2700","direccion":"Florida y Dean Funes  Bo. 12 de Octubre","tel":"02477-442947","email":null,"camas":0}},{"type":"Feature","id":"salud2012_publicos.23","geometry":{"type":"Point","coordinates":[-60.575104206999924,-33.8762073659999]},"geometry_name":"geom","properties":{"objectid":23,"nompar":"PERGAMINO","nombre":"CAPS RAUL ARBALLO","codigo":"62300438","jurisdicci":"MUNI","rsanit_08":"IV","tipo_est":"esidt","loc":"Pergamino","cp":"2700","direccion":"Conscripto Silva N° 648","tel":"02477-435570","email":null,"camas":0}},{"type":"Feature","id":"salud2012_publicos.24","geometry":{"type":"Point","coordinates":[-60.5681182969999,-33.85903696199995]},"geometry_name":"geom","properties":{"objectid":24,"nompar":"PERGAMINO","nombre":"CAP Bº OTERO","codigo":"62300268","jurisdicci":"MUNI","rsanit_08":"IV","tipo_est":"esidt","loc":"Pergamino","cp":"2700","direccion":"Calle 101 S/N Bo. Otero","tel":"02477-442280","email":null,"camas":0}},{"type":"Feature","id":"salud2012_publicos.25","geometry":{"type":"Point","coordinates":[-60.556950341999936,-33.87146007599995]},"geometry_name":"geom","properties":{"objectid":25,"nompar":"PERGAMINO","nombre":"CAP DR. ITALO VIGLIERCHIO","codigo":"62300381","jurisdicci":"MUNI","rsanit_08":"IV","tipo_est":"esidt","loc":"Pergamino","cp":"2700","direccion":"Chilavert N° 202  Bo. Viglierchio","tel":"02477-436283","email":null,"camas":0}},{"type":"Feature","id":"salud2012_publicos.26","geometry":{"type":"Point","coordinates":[-60.567828826999914,-33.873413728999935]},"geometry_name":"geom","properties":{"objectid":26,"nompar":"PERGAMINO","nombre":"CAPS SAN JOSE","codigo":"62300349","jurisdicci":"MUNI","rsanit_08":"IV","tipo_est":"esidt","loc":"Pergamino","cp":"2700","direccion":"Chiclana N° 1380 Bo. San José","tel":"02477-430019","email":null,"camas":0}},{"type":"Feature","id":"salud2012_publicos.27","geometry":{"type":"Point","coordinates":[-60.560965755999916,-33.8819054999999]},"geometry_name":"geom","properties":{"objectid":27,"nompar":"PERGAMINO","nombre":"CAPS Bº ACEVEDO","codigo":"62300365","jurisdicci":"MUNI","rsanit_08":"IV","tipo_est":"esidt","loc":"Pergamino","cp":"2700","direccion":"A. Raimundo N° 186 Bo. Acevedo","tel":"02477-434693","email":null,"camas":0}},{"type":"Feature","id":"salud2012_publicos.28","geometry":{"type":"Point","coordinates":[-60.53703387299993,-33.88625422799993]},"geometry_name":"geom","properties":{"objectid":28,"nompar":"PERGAMINO","nombre":"CAPS VA. ALICIA","codigo":"62300331","jurisdicci":"MUNI","rsanit_08":"IV","tipo_est":"esidt","loc":"Pergamino","cp":"2700","direccion":"Calle 13 y 18 Villa Alicia","tel":"02477-442917","email":null,"camas":0}},{"type":"Feature","id":"salud2012_publicos.29","geometry":{"type":"Point","coordinates":[-60.54345786899995,-33.89866319399994]},"geometry_name":"geom","properties":{"objectid":29,"nompar":"PERGAMINO","nombre":"CAP CAP DRA. SONIA FERNANDEZ","codigo":"62300306","jurisdicci":"MUNI","rsanit_08":"IV","tipo_est":"esidt","loc":"Pergamino","cp":"2700","direccion":"Dr. Ojenola N° 2079 Bo. 25 de Mayo","tel":"02477-437653","email":null,"camas":0}},{"type":"Feature","id":"salud2012_publicos.30","geometry":{"type":"Point","coordinates":[-60.55979787199993,-33.91010070999994]},"geometry_name":"geom","properties":{"objectid":30,"nompar":"PERGAMINO","nombre":"CAP Bº JOHN KENNEDY","codigo":"62300292","jurisdicci":"MUNI","rsanit_08":"IV","tipo_est":"esidt","loc":"Pergamino","cp":"2700","direccion":"R. Guiraldes S/N Bo. Kennedy","tel":"02477-430015","email":null,"camas":0}},{"type":"Feature","id":"salud2012_publicos.31","geometry":{"type":"Point","coordinates":[-58.614459896999904,-34.47773437899991]},"geometry_name":"geom","properties":{"objectid":31,"nompar":"TIGRE","nombre":"U.S. BUENOS AIRES","codigo":"80500274","jurisdicci":"MUNI","rsanit_08":"V","tipo_est":"esidt","loc":"Don Torcuato","cp":"1611","direccion":"Elcano e/Gallardo e Ituzaingó S/N","tel":"011-45132532","email":null,"camas":0}},{"type":"Feature","id":"salud2012_publicos.32","geometry":{"type":"Point","coordinates":[-58.6090464209999,-34.458051043999944]},"geometry_name":"geom","properties":{"objectid":32,"nompar":"TIGRE","nombre":"C.S. TRONCOS DEL TALAR","codigo":"80500401","jurisdicci":"MUNI","rsanit_08":"V","tipo_est":"esidt","loc":"Los Troncos del Talar","cp":"1648","direccion":"Mozart y Triunvirato","tel":"011-45129987","email":null,"camas":0}},{"type":"Feature","id":"salud2012_publicos.33","geometry":{"type":"Point","coordinates":[-60.694438849999926,-33.65738081999996]},"geometry_name":"geom","properties":{"objectid":33,"nompar":"PERGAMINO","nombre":"CAP EL SOCORRO","codigo":"62300021","jurisdicci":"MUNI","rsanit_08":"IV","tipo_est":"esidt","loc":"El Socorro","cp":"2715","direccion":"Zona Rural El Socorro","tel":"02477-495069","email":null,"camas":0}},{"type":"Feature","id":"salud2012_publicos.34","geometry":{"type":"Point","coordinates":[-60.48701071799991,-33.83339298599992]},"geometry_name":"geom","properties":{"objectid":34,"nompar":"PERGAMINO","nombre":"CAP J.A. DE LA PEÑA","codigo":"62300314","jurisdicci":"MUNI","rsanit_08":"IV","tipo_est":"esidt","loc":"j. A. De La Peña","cp":"2717","direccion":"Ruta 188 S/N","tel":"02477-440510","email":null,"camas":0}},{"type":"Feature","id":"salud2012_publicos.35","geometry":{"type":"Point","coordinates":[-60.43938248399991,-33.75561669699994]},"geometry_name":"geom","properties":{"objectid":35,"nompar":"PERGAMINO","nombre":"CAPS ACEVEDO PUEBLO","codigo":"62300012","jurisdicci":"MUNI","rsanit_08":"IV","tipo_est":"esidt","loc":"Acevedo","cp":"2717","direccion":"Av. Centenario S/N","tel":"02477-482004","email":null,"camas":0}},{"type":"Feature","id":"salud2012_publicos.36","geometry":{"type":"Point","coordinates":[-60.4009282749999,-33.67476966899994]},"geometry_name":"geom","properties":{"objectid":36,"nompar":"PERGAMINO","nombre":"CAP GUERRICO","codigo":"62300039","jurisdicci":"MUNI","rsanit_08":"IV","tipo_est":"esidt","loc":"Guerrico","cp":"2717","direccion":"Av. Alberti N°247","tel":"02477-498166","email":null,"camas":0}},{"type":"Feature","id":"salud2012_publicos.37","geometry":{"type":"Point","coordinates":[-60.17089483099994,-33.73281973999991]},"geometry_name":"geom","properties":{"objectid":37,"nompar":"PERGAMINO","nombre":"CAP LA VIOLETA","codigo":"62300047","jurisdicci":"MUNI","rsanit_08":"IV","tipo_est":"esidt","loc":"La Violeta","cp":"2751","direccion":"Rivadavia S/N La Violeta","tel":"02477-495050","email":null,"camas":0}},{"type":"Feature","id":"salud2012_publicos.38","geometry":{"type":"Point","coordinates":[-60.3796775589999,-33.926692343999946]},"geometry_name":"geom","properties":{"objectid":38,"nompar":"PERGAMINO","nombre":"CAPS URQUIZA","codigo":"62300152","jurisdicci":"MUNI","rsanit_08":"IV","tipo_est":"esidt","loc":"Urquiza","cp":"2718","direccion":"Formosa N° 623","tel":"02477-499103","email":null,"camas":0}},{"type":"Feature","id":"salud2012_publicos.39","geometry":{"type":"Point","coordinates":[-60.50201999299992,-34.03524705399991]},"geometry_name":"geom","properties":{"objectid":39,"nompar":"PERGAMINO","nombre":"CAPS RANCAGUA","codigo":"62300136","jurisdicci":"MUNI","rsanit_08":"IV","tipo_est":"esidt","loc":"Rancagua","cp":"2700","direccion":"Elizalde S/N","tel":"02477-493007","email":null,"camas":0}},{"type":"Feature","id":"salud2012_publicos.40","geometry":{"type":"Point","coordinates":[-60.840192757999944,-33.913272116999906]},"geometry_name":"geom","properties":{"objectid":40,"nompar":"PERGAMINO","nombre":"CAP M.ALFONZO","codigo":"62300250","jurisdicci":"MUNI","rsanit_08":"IV","tipo_est":"esidt","loc":"H. Alfonzo","cp":"2718","direccion":"Av. San Martín S/N","tel":"02477-496014","email":null,"camas":0}},{"type":"Feature","id":"salud2012_publicos.41","geometry":{"type":"Point","coordinates":[-58.928080320999925,-34.203252876999954]},"geometry_name":"geom","properties":{"objectid":41,"nompar":"CAMPANA","nombre":"CAPS Nº 10 La Josefa","codigo":"12600252","jurisdicci":"MUNI","rsanit_08":"V","tipo_est":"esidt","loc":"Campana","cp":"2804","direccion":"Padre Martino N° 1673 La Josefa","tel":"03489-441451","email":"dsccampana@hotmail.com","camas":0}},{"type":"Feature","id":"salud2012_publicos.42","geometry":{"type":"Point","coordinates":[-58.91810434899992,-34.21687108799995]},"geometry_name":"geom","properties":{"objectid":42,"nompar":"CAMPANA","nombre":"CAPS Nº 21 B° Albizola","codigo":"12600350","jurisdicci":"MUNI","rsanit_08":"V","tipo_est":"esidt","loc":"Campana","cp":"2804","direccion":"Mateo Blanco S/N Albizola","tel":"03489-447490","email":"dsccampana@hotmail.com","camas":0}},{"type":"Feature","id":"salud2012_publicos.43","geometry":{"type":"Point","coordinates":[-58.91213287799991,-34.22168853399995]},"geometry_name":"geom","properties":{"objectid":43,"nompar":"CAMPANA","nombre":"CAPS Nº 16 B° San Jacinto","codigo":"12600309","jurisdicci":"MUNI","rsanit_08":"V","tipo_est":"esidt","loc":"Campana","cp":"2804","direccion":"Fernandez N° 311 San Jacinto","tel":"03489-447503","email":"dsccampana@hotmail.com","camas":0}},{"type":"Feature","id":"salud2012_publicos.44","geometry":{"type":"Point","coordinates":[-58.91916302599992,-34.251478695999936]},"geometry_name":"geom","properties":{"objectid":44,"nompar":"CAMPANA","nombre":"CAPS Nº 14 B° Las Praderas","codigo":"12600279","jurisdicci":"MUNI","rsanit_08":"V","tipo_est":"esidt","loc":"Campana","cp":"2804","direccion":"Verdier N° 508 Las Praderas","tel":"03489-436754","email":"dsccampana@hotmail.com","camas":0}},{"type":"Feature","id":"salud2012_publicos.45","geometry":{"type":"Point","coordinates":[-58.948773899999935,-34.172799435999934]},"geometry_name":"geom","properties":{"objectid":45,"nompar":"CAMPANA","nombre":"HTAL. SAN JOSE","codigo":"12600040","jurisdicci":"MUNI","rsanit_08":"V","tipo_est":"ecig","loc":"Campana","cp":"2804","direccion":"Alberti N° 576","tel":"03489-407301/21/25","email":null,"camas":90}},{"type":"Feature","id":"salud2012_publicos.46","geometry":{"type":"Point","coordinates":[-60.21552830899992,-33.32898634499992]},"geometry_name":"geom","properties":{"objectid":46,"nompar":"SAN NICOLAS","nombre":"CEMPRE DR. A. FERREYRA","codigo":"76300040","jurisdicci":"MUNI","rsanit_08":"IV","tipo_est":"ec","loc":"San Nicolás","cp":"2900","direccion":"Rivadavia N° 45","tel":"03461-508830/36","email":null,"camas":0}},{"type":"Feature","id":"salud2012_publicos.47","geometry":{"type":"Point","coordinates":[-60.19936592199991,-33.33755402999992]},"geometry_name":"geom","properties":{"objectid":47,"nompar":"SAN NICOLAS","nombre":"DISP. SAN ROQUE","codigo":"76300236","jurisdicci":"MUNI","rsanit_08":"IV","tipo_est":"esidt","loc":"San Nicolás","cp":"2900","direccion":"Cochabamba y Colón Bo. Cavalli","tel":"-","email":null,"camas":0}},{"type":"Feature","id":"salud2012_publicos.48","geometry":{"type":"Point","coordinates":[-60.243406300999936,-33.316240336999954]},"geometry_name":"geom","properties":{"objectid":48,"nompar":"SAN NICOLAS","nombre":"C. DE AT. ENFERMERO BARBARITO","codigo":"76300431","jurisdicci":"MUNI","rsanit_08":"IV","tipo_est":"esidt","loc":"San Nicolás","cp":"2900","direccion":"Pastor Naranjo N° 898 Bo. 25 de Mayo","tel":"-","email":null,"camas":0}},{"type":"Feature","id":"salud2012_publicos.49","geometry":{"type":"Point","coordinates":[-58.924502455999914,-34.230272115999924]},"geometry_name":"geom","properties":{"objectid":49,"nompar":"CAMPANA","nombre":"CAPS Nº 24 Los Pioneros","codigo":"12600406","jurisdicci":"MUNI","rsanit_08":"V","tipo_est":"esidt","loc":"Campana","cp":"2804","direccion":"Maffei N°566 - Bo. Los Pioneros","tel":"03489-15455748","email":"dsccampana@hotmail.com","camas":0}},{"type":"Feature","id":"salud2012_publicos.50","geometry":{"type":"Point","coordinates":[-58.96344459499994,-34.29580802599992]},"geometry_name":"geom","properties":{"objectid":50,"nompar":"CAMPANA","nombre":"CAPS Nº 23 Río Luján","codigo":"12600449","jurisdicci":"MUNI","rsanit_08":"V","tipo_est":"esidt","loc":"Campana","cp":"2804","direccion":"Quinquela Martín S/N","tel":null,"email":"dsccampana@hotmail.com","camas":0}},{"type":"Feature","id":"salud2012_publicos.51","geometry":{"type":"Point","coordinates":[-59.67271486299995,-33.67484532399993]},"geometry_name":"geom","properties":{"objectid":51,"nompar":"SAN PEDRO","nombre":"C.S. 1º DE MAYO","codigo":"77000198","jurisdicci":"MUNI","rsanit_08":"IV","tipo_est":"esidt","loc":"San Pedro","cp":"2930","direccion":"Bvard. Moreno y Benefactora Sampedrino","tel":"03329-424002","email":null,"camas":0}},{"type":"Feature","id":"salud2012_publicos.52","geometry":{"type":"Point","coordinates":[-59.668300950999935,-33.68756969799995]},"geometry_name":"geom","properties":{"objectid":52,"nompar":"SAN PEDRO","nombre":"HTAL. SZ. DR. E.RUFFA","codigo":"77000074","jurisdicci":"MUNI","rsanit_08":"IV","tipo_est":"ecig","loc":"San Pedro","cp":"2930","direccion":"25 de Mayo N° 1901","tel":"03329-425207/2587","email":null,"camas":65}},{"type":"Feature","id":"salud2012_publicos.53","geometry":{"type":"Point","coordinates":[-59.674407181999925,-33.69790292999994]},"geometry_name":"geom","properties":{"objectid":53,"nompar":"SAN PEDRO","nombre":"C.S. LOS AROMOS","codigo":"77000228","jurisdicci":"MUNI","rsanit_08":"IV","tipo_est":"esidt","loc":"San Pedro","cp":"2930","direccion":"Esquíu y Rivadavia Bo. Los Aromos","tel":"03329-423707","email":null,"camas":0}},{"type":"Feature","id":"salud2012_publicos.54","geometry":{"type":"Point","coordinates":[-59.65530726299994,-33.69098502999992]},"geometry_name":"geom","properties":{"objectid":54,"nompar":"SAN PEDRO","nombre":"C.S. MATEO SBERT","codigo":"77000201","jurisdicci":"MUNI","rsanit_08":"IV","tipo_est":"esidt","loc":"San Pedro","cp":"2930","direccion":"Joaquín V. González N° 1230","tel":"03329-424070","email":null,"camas":0}},{"type":"Feature","id":"salud2012_publicos.55","geometry":{"type":"Point","coordinates":[-59.680325136999954,-33.66209390499995]},"geometry_name":"geom","properties":{"objectid":55,"nompar":"SAN PEDRO","nombre":"C.S. LAS CANALETAS","codigo":"77000171","jurisdicci":"MUNI","rsanit_08":"IV","tipo_est":"esidt","loc":"Las Canaletas","cp":"2930","direccion":"Juan Ismael Giménez N° 1600","tel":"03329-423524","email":null,"camas":0}},{"type":"Feature","id":"salud2012_publicos.56","geometry":{"type":"Point","coordinates":[-59.10335984099993,-34.28048906999993]},"geometry_name":"geom","properties":{"objectid":56,"nompar":"EXALTACION DE LA CRUZ","nombre":"C.A. Bº ESPERANZA","codigo":"26600069","jurisdicci":"MUNI","rsanit_08":"V","tipo_est":"esidt","loc":"Capilla del Señor","cp":"2812","direccion":"Perú y República Argentina Bo. Esperanza","tel":null,"email":null,"camas":0}},{"type":"Feature","id":"salud2012_publicos.57","geometry":{"type":"Point","coordinates":[-58.93492433499995,-34.213200298999936]},"geometry_name":"geom","properties":{"objectid":57,"nompar":"CAMPANA","nombre":"CAPS Nº 17 B° Las Campanas","codigo":"12600317","jurisdicci":"MUNI","rsanit_08":"V","tipo_est":"esidt","loc":"Campana","cp":"2804","direccion":"Coltelli y Demarco Las Campanas","tel":"03489-444367","email":"dsccampana@hotmail.com","camas":0}},{"type":"Feature","id":"salud2012_publicos.58","geometry":{"type":"Point","coordinates":[-58.93986075299995,-34.20934770799994]},"geometry_name":"geom","properties":{"objectid":58,"nompar":"CAMPANA","nombre":"CAPS Nº 5 B° Ariel del Plata","codigo":"12600163","jurisdicci":"MUNI","rsanit_08":"V","tipo_est":"esidt","loc":"Campana","cp":"2804","direccion":"Aguiar y Mollo  Bo. Ariel del Plata","tel":"03489-440050","email":"dsccampana@hotmail.com","camas":0}},{"type":"Feature","id":"salud2012_publicos.59","geometry":{"type":"Point","coordinates":[-58.90793614599994,-34.229839926999944]},"geometry_name":"geom","properties":{"objectid":59,"nompar":"CAMPANA","nombre":"CAPS Nº 2","codigo":"12600180","jurisdicci":"MUNI","rsanit_08":"V","tipo_est":"esidt","loc":"Campana","cp":"2804","direccion":"Raúl Ayos e/Otamendi y Cordero","tel":"03489-447489","email":null,"camas":0}},{"type":"Feature","id":"salud2012_publicos.60","geometry":{"type":"Point","coordinates":[-60.64878265899995,-33.76474953099995]},"geometry_name":"geom","properties":{"objectid":60,"nompar":"PERGAMINO","nombre":"CAP MANUEL OCAMPO","codigo":"62300055","jurisdicci":"MUNI","rsanit_08":"IV","tipo_est":"esidt","loc":"M. Ocampo","cp":"2718","direccion":"Ferreyra S/N","tel":"02477-494281","email":null,"camas":0}},{"type":"Feature","id":"salud2012_publicos.61","geometry":{"type":"Point","coordinates":[-58.94781436599993,-34.18516533299993]},"geometry_name":"geom","properties":{"objectid":61,"nompar":"CAMPANA","nombre":"CAPS Nº 1 del Pino","codigo":"12600058","jurisdicci":"MUNI","rsanit_08":"V","tipo_est":"esidt","loc":"Campana","cp":"2804","direccion":"Necochea N° 1223","tel":"03489-441396","email":"dsccampana@hotmail.com","camas":0}},{"type":"Feature","id":"salud2012_publicos.62","geometry":{"type":"Point","coordinates":[-58.93933171499992,-34.192431824999915]},"geometry_name":"geom","properties":{"objectid":62,"nompar":"CAMPANA","nombre":"CAPS Nº 3 Lubo","codigo":"12600082","jurisdicci":"MUNI","rsanit_08":"V","tipo_est":"esidt","loc":"Campana","cp":"2804","direccion":"Cordeu N° 976 Bo. Lubo","tel":"03489-441395","email":null,"camas":0}},{"type":"Feature","id":"salud2012_publicos.63","geometry":{"type":"Point","coordinates":[-58.99957556399994,-34.160964021999916]},"geometry_name":"geom","properties":{"objectid":63,"nompar":"CAMPANA","nombre":"CAPS Nº 4 San Cayetano","codigo":"12600104","jurisdicci":"MUNI","rsanit_08":"V","tipo_est":"esidt","loc":"Campana","cp":"2804","direccion":"B. Bidegain N° 226 San Cayetano","tel":"03489-430184","email":"dsccampana@hotmail.com","camas":0}},{"type":"Feature","id":"salud2012_publicos.64","geometry":{"type":"Point","coordinates":[-59.00356681699992,-34.15220936999992]},"geometry_name":"geom","properties":{"objectid":64,"nompar":"CAMPANA","nombre":"CAPS Nº 11 Santa Lucía","codigo":"12600244","jurisdicci":"MUNI","rsanit_08":"V","tipo_est":"esidt","loc":"Campana","cp":"2804","direccion":"Gurrea N° 435 Santa Lucía","tel":"03489-430278","email":"dsccampana@hotmail.com","camas":0}},{"type":"Feature","id":"salud2012_publicos.65","geometry":{"type":"Point","coordinates":[-58.974465547999955,-34.18552495699993]},"geometry_name":"geom","properties":{"objectid":65,"nompar":"CAMPANA","nombre":"CAPS Nº 12 San Felipe","codigo":"12600236","jurisdicci":"MUNI","rsanit_08":"V","tipo_est":"esidt","loc":"Campana","cp":"2804","direccion":"Dorrego N° 1322 San Felipe","tel":"03489-437551","email":"dsccampana@hotmail.com","camas":0}},{"type":"Feature","id":"salud2012_publicos.66","geometry":{"type":"Point","coordinates":[-58.96756112799994,-34.19037485299992]},"geometry_name":"geom","properties":{"objectid":66,"nompar":"CAMPANA","nombre":"CAPS Nº 6 Va.Nueva","codigo":"12600074","jurisdicci":"MUNI","rsanit_08":"V","tipo_est":"esidt","loc":"Campana","cp":"2804","direccion":"San Lorenzo N° 982 Bo. Villanueva","tel":"03489-437549","email":"dsccampana@hotmail.com","camas":0}},{"type":"Feature","id":"salud2012_publicos.67","geometry":{"type":"Point","coordinates":[-58.95901751899993,-34.188854748999916]},"geometry_name":"geom","properties":{"objectid":67,"nompar":"CAMPANA","nombre":"C.P. Nº 19","codigo":"12600333","jurisdicci":"MUNI","rsanit_08":"V","tipo_est":"esidt","loc":"Campana","cp":"2804","direccion":"Maipú N° 714","tel":null,"email":"dsccampana@hotmail.com","camas":0}},{"type":"Feature","id":"salud2012_publicos.68","geometry":{"type":"Point","coordinates":[-58.94113799299993,-34.19901527799993]},"geometry_name":"geom","properties":{"objectid":68,"nompar":"CAMPANA","nombre":"CAPS Nº 18 SIDERCA","codigo":"12600325","jurisdicci":"MUNI","rsanit_08":"V","tipo_est":"esidt","loc":"Campana","cp":"2804","direccion":"Lavezzari y Colectora Sur S/N","tel":"03489-448420","email":"dsccampana@hotmail.com","camas":0}},{"type":"Feature","id":"salud2012_publicos.69","geometry":{"type":"Point","coordinates":[-58.93725925399991,-34.187206044999925]},"geometry_name":"geom","properties":{"objectid":69,"nompar":"CAMPANA","nombre":"CAPS Nº 13 La Esperanza","codigo":"12600287","jurisdicci":"MUNI","rsanit_08":"V","tipo_est":"esidt","loc":"Campana","cp":"2804","direccion":"Dasso N° 393  La Esperanza","tel":"03489-441393","email":"dsccampana@hotmail.com","camas":0}},{"type":"Feature","id":"salud2012_publicos.70","geometry":{"type":"Point","coordinates":[-58.94378603399991,-34.18396534999994]},"geometry_name":"geom","properties":{"objectid":70,"nompar":"CAMPANA","nombre":"CAPS Nº 20 Sarmiento","codigo":"12600341","jurisdicci":"MUNI","rsanit_08":"V","tipo_est":"esidt","loc":"Campana","cp":"2804","direccion":"Liniers N° 78 Sarmiento","tel":"03489-437553","email":"dsccampana@hotmail.com","camas":0}},{"type":"Feature","id":"salud2012_publicos.71","geometry":{"type":"Point","coordinates":[-58.95124354399991,-34.18933316199991]},"geometry_name":"geom","properties":{"objectid":71,"nompar":"CAMPANA","nombre":"CIC Nº25 9 de Julio","codigo":"12600261","jurisdicci":"MUNI","rsanit_08":"V","tipo_est":"esidt","loc":"Campana","cp":"2804","direccion":"Maipú N° 375 9 de Julio","tel":"03489-437550","email":"dsccampana@hotmail.com","camas":0}},{"type":"Feature","id":"salud2012_publicos.72","geometry":{"type":"Point","coordinates":[-58.96615007799994,-34.20187622699996]},"geometry_name":"geom","properties":{"objectid":72,"nompar":"CAMPANA","nombre":"CAPS Nº 7 Las Acacias","codigo":"12600228","jurisdicci":"MUNI","rsanit_08":"V","tipo_est":"esidt","loc":"Campana","cp":"2804","direccion":"Echeverría N° 952","tel":"03489-437555","email":"dsccampana@hotmail.com","camas":0}},{"type":"Feature","id":"salud2012_publicos.73","geometry":{"type":"Point","coordinates":[-60.25261275799994,-33.305871071999945]},"geometry_name":"geom","properties":{"objectid":73,"nompar":"SAN NICOLAS","nombre":"CAP Socio Sanitaria OMAR RICARDINI","codigo":"76300228","jurisdicci":"MUNI","rsanit_08":"IV","tipo_est":"esidt","loc":"San Nicolás","cp":"2900","direccion":"Otero N° 1288 Bo. San Martín","tel":"-","email":null,"camas":0}},{"type":"Feature","id":"salud2012_publicos.74","geometry":{"type":"Point","coordinates":[-60.26585324399991,-33.29601640399994]},"geometry_name":"geom","properties":{"objectid":74,"nompar":"SAN NICOLAS","nombre":"CAP Socio Sanitaria. R CARDINALE","codigo":"76300473","jurisdicci":"MUNI","rsanit_08":"IV","tipo_est":"esidt","loc":"San Nicolás","cp":"2900","direccion":"Schubert N° 1783 Bo. Las Mellizas","tel":"-","email":null,"camas":0}},{"type":"Feature","id":"salud2012_publicos.75","geometry":{"type":"Point","coordinates":[-60.20718509499994,-33.35540237399994]},"geometry_name":"geom","properties":{"objectid":75,"nompar":"SAN NICOLAS","nombre":"C.P. HUGO PANZARDI","codigo":"76300546","jurisdicci":"MUNI","rsanit_08":"IV","tipo_est":"esidt","loc":"San Nicolás","cp":"2900","direccion":"Segundo García y Brown Bo. Del Carmen","tel":"-","email":null,"camas":0}},{"type":"Feature","id":"salud2012_publicos.76","geometry":{"type":"Point","coordinates":[-60.194916751999926,-33.36230259799993]},"geometry_name":"geom","properties":{"objectid":76,"nompar":"SAN NICOLAS","nombre":"DISP. DR. LOMBARDI","codigo":"76300252","jurisdicci":"MUNI","rsanit_08":"IV","tipo_est":"esidt","loc":"San Nicolás","cp":"2900","direccion":"Benítez N° 604 Bo. Santa Rosa","tel":"-","email":null,"camas":0}},{"type":"Feature","id":"salud2012_publicos.77","geometry":{"type":"Point","coordinates":[-60.19065109999991,-33.37546855699992]},"geometry_name":"geom","properties":{"objectid":77,"nompar":"SAN NICOLAS","nombre":"C.S. 7 DE SEPTIEMBRE","codigo":"76300619","jurisdicci":"MUNI","rsanit_08":"IV","tipo_est":"esidt","loc":"San Nicolás","cp":"2900","direccion":"Montiel S/N Bo. 7 de Septiembre","tel":"-","email":null,"camas":0}},{"type":"Feature","id":"salud2012_publicos.78","geometry":{"type":"Point","coordinates":[-60.20417935699993,-33.37488233999994]},"geometry_name":"geom","properties":{"objectid":78,"nompar":"SAN NICOLAS","nombre":"DISP. OSCAR FUSSI","codigo":"76300503","jurisdicci":"MUNI","rsanit_08":"IV","tipo_est":"esidt","loc":"San Nicolás","cp":"2900","direccion":"J. Howard y Furst Bo. Avanboé","tel":"-","email":null,"camas":0}},{"type":"Feature","id":"salud2012_publicos.79","geometry":{"type":"Point","coordinates":[-60.17751732699992,-33.38617040899993]},"geometry_name":"geom","properties":{"objectid":79,"nompar":"SAN NICOLAS","nombre":"DISP. SOMISA","codigo":"76300520","jurisdicci":"MUNI","rsanit_08":"IV","tipo_est":"esidt","loc":"San Nicolás","cp":"2900","direccion":"29 Oeste N° 90 Bo. SOMISA","tel":"-","email":null,"camas":0}},{"type":"Feature","id":"salud2012_publicos.80","geometry":{"type":"Point","coordinates":[-60.230305278999936,-33.35116910699992]},"geometry_name":"geom","properties":{"objectid":80,"nompar":"SAN NICOLAS","nombre":"DISP. LUIS GALLO","codigo":"76300406","jurisdicci":"MUNI","rsanit_08":"IV","tipo_est":"esidt","loc":"San Nicolás","cp":"2900","direccion":"Tucumán y España Bo. Mitre","tel":"-","email":null,"camas":0}},{"type":"Feature","id":"salud2012_publicos.81","geometry":{"type":"Point","coordinates":[-60.25120040799993,-33.35443058399994]},"geometry_name":"geom","properties":{"objectid":81,"nompar":"SAN NICOLAS","nombre":"CAP Socio Sanitaria Farm. Biasioli","codigo":"76300414","jurisdicci":"MUNI","rsanit_08":"IV","tipo_est":"esidt","loc":"San Nicolás","cp":"2900","direccion":"Del Forno N° 196 Bo. San Francisco","tel":"-","email":null,"camas":0}},{"type":"Feature","id":"salud2012_publicos.82","geometry":{"type":"Point","coordinates":[-60.23772370799992,-33.344179123999936]},"geometry_name":"geom","properties":{"objectid":82,"nompar":"SAN NICOLAS","nombre":"CAP Socio Sanitaria VIRGEN DEL ROSARIO","codigo":"76300538","jurisdicci":"MUNI","rsanit_08":"IV","tipo_est":"esidt","loc":"San Nicolás","cp":"2900","direccion":"Corrientes N° 296 Bo. Oeste","tel":"-","email":null,"camas":0}},{"type":"Feature","id":"salud2012_publicos.83","geometry":{"type":"Point","coordinates":[-60.238753699999904,-33.356587146999914]},"geometry_name":"geom","properties":{"objectid":83,"nompar":"SAN NICOLAS","nombre":"U.S. JOSEFA ROSSELLO","codigo":"76300571","jurisdicci":"MUNI","rsanit_08":"IV","tipo_est":"esidt","loc":"San Nicolás","cp":"2900","direccion":"Ameghino y Guido Lavalle Bo. 12 de Marzo","tel":"-","email":null,"camas":0}},{"type":"Feature","id":"salud2012_publicos.84","geometry":{"type":"Point","coordinates":[-60.25655513699991,-33.374541705999945]},"geometry_name":"geom","properties":{"objectid":84,"nompar":"SAN NICOLAS","nombre":"DISP. PEDRO WAGNER","codigo":"76300279","jurisdicci":"MUNI","rsanit_08":"IV","tipo_est":"esidt","loc":"San Nicolás","cp":"2900","direccion":"Ameghino y Rega Molina Colombini","tel":"-","email":null,"camas":0}},{"type":"Feature","id":"salud2012_publicos.85","geometry":{"type":"Point","coordinates":[-60.22336271599994,-33.355910915999914]},"geometry_name":"geom","properties":{"objectid":85,"nompar":"SAN NICOLAS","nombre":"CAP Socio Sanitario NTRO. SR. DE LAS VIÑAS","codigo":"76300244","jurisdicci":"MUNI","rsanit_08":"IV","tipo_est":"esidt","loc":"San Nicolás","cp":"2900","direccion":"San Lorenzo N° 1015 Bo. Las Viñas","tel":"-","email":null,"camas":0}},{"type":"Feature","id":"salud2012_publicos.86","geometry":{"type":"Point","coordinates":[-60.24137089499993,-33.331727145999935]},"geometry_name":"geom","properties":{"objectid":86,"nompar":"SAN NICOLAS","nombre":"U.S. Bº ASONIA","codigo":"76300457","jurisdicci":"MUNI","rsanit_08":"IV","tipo_est":"esidt","loc":"San Nicolás","cp":"2900","direccion":"Rondeau y Eva Perón Bo. Asonia","tel":"-","email":null,"camas":0}},{"type":"Feature","id":"salud2012_publicos.514","geometry":{"type":"Point","coordinates":[-59.111015023999926,-34.28751406199996]},"geometry_name":"geom","properties":{"objectid":514,"nompar":"EXALTACION DE LA CRUZ","nombre":"CAP La Casita","codigo":"26600093","jurisdicci":"MUNI","rsanit_08":"V","tipo_est":"esidt","loc":null,"cp":null,"direccion":null,"tel":null,"email":null,"camas":0}},{"type":"Feature","id":"salud2012_publicos.87","geometry":{"type":"Point","coordinates":[-60.24634419799992,-33.34019051999991]},"geometry_name":"geom","properties":{"objectid":87,"nompar":"SAN NICOLAS","nombre":"CAP Socio Sanitaria Villa Canto","codigo":"76300465","jurisdicci":"MUNI","rsanit_08":"IV","tipo_est":"esidt","loc":"San Nicolás","cp":"2900","direccion":"A. Troilo N° 2593 Bo. Villa Canto","tel":"-","email":null,"camas":0}},{"type":"Feature","id":"salud2012_publicos.88","geometry":{"type":"Point","coordinates":[-58.542965291999906,-34.566647314999955]},"geometry_name":"geom","properties":{"objectid":88,"nompar":"GENERAL SAN MARTIN","nombre":"INST. DE REHAB. PSICOFISICA","codigo":"37100696","jurisdicci":"MUNI","rsanit_08":"V","tipo_est":"esit","loc":"San Andrés","cp":"1651","direccion":"La Crujía  N° 3229","tel":"011-48300707/00557","email":null,"camas":0}},{"type":"Feature","id":"salud2012_publicos.89","geometry":{"type":"Point","coordinates":[-58.577710046999925,-34.58669598899991]},"geometry_name":"geom","properties":{"objectid":89,"nompar":"TRES DE FEBRERO","nombre":"U.S. Nº 4","codigo":"84000101","jurisdicci":"MUNI","rsanit_08":"VII","tipo_est":"esidt","loc":"Villa Bosch","cp":"1682","direccion":"Guido Espano N° 1171","tel":"011-48440790/4407","email":null,"camas":0}},{"type":"Feature","id":"salud2012_publicos.90","geometry":{"type":"Point","coordinates":[-58.614470834999906,-34.56467498899991]},"geometry_name":"geom","properties":{"objectid":90,"nompar":"TRES DE FEBRERO","nombre":"U.S. Nº 5","codigo":"84000152","jurisdicci":"MUNI","rsanit_08":"VII","tipo_est":"esidt","loc":"Loma Hermosa","cp":"1657","direccion":"Av. Churruca N° 9910","tel":"011-47690565","email":null,"camas":0}},{"type":"Feature","id":"salud2012_publicos.91","geometry":{"type":"Point","coordinates":[-58.555155079999906,-34.618031972999916]},"geometry_name":"geom","properties":{"objectid":91,"nompar":"TRES DE FEBRERO","nombre":"U.S. Nº 6","codigo":"84000047","jurisdicci":"MUNI","rsanit_08":"VII","tipo_est":"esidt","loc":"Caseros","cp":"1678","direccion":"Lavarden N° 4129 Derqui","tel":"011-47505823","email":null,"camas":0}},{"type":"Feature","id":"salud2012_publicos.92","geometry":{"type":"Point","coordinates":[-58.536104716999944,-34.63784635499991]},"geometry_name":"geom","properties":{"objectid":92,"nompar":"TRES DE FEBRERO","nombre":"U.S. Nº 1","codigo":"84000012","jurisdicci":"MUNI","rsanit_08":"VII","tipo_est":"esidt","loc":"Ciudadela","cp":"1706","direccion":"Gaceta de Buenos Aires N° 3550","tel":"011-46578465/0086","email":null,"camas":0}},{"type":"Feature","id":"salud2012_publicos.93","geometry":{"type":"Point","coordinates":[-58.540890936999915,-34.61732044999991]},"geometry_name":"geom","properties":{"objectid":93,"nompar":"TRES DE FEBRERO","nombre":"U.S. Nº 2","codigo":"84000063","jurisdicci":"MUNI","rsanit_08":"VII","tipo_est":"esidt","loc":"José Ingenieros","cp":"1702","direccion":"Marcelo T. de Alvear N° 598","tel":"011-47570662","email":null,"camas":0}},{"type":"Feature","id":"salud2012_publicos.94","geometry":{"type":"Point","coordinates":[-58.56695419499994,-34.60311337899992]},"geometry_name":"geom","properties":{"objectid":94,"nompar":"TRES DE FEBRERO","nombre":"C. M. S. CAPS N° 10","codigo":"84000314","jurisdicci":"MUNI","rsanit_08":"VII","tipo_est":"esidt","loc":"Caseros","cp":"1678","direccion":"Juan B. Alberdi N° 5030","tel":"011-47164000","email":null,"camas":0}},{"type":"Feature","id":"salud2012_publicos.95","geometry":{"type":"Point","coordinates":[-58.57671263599991,-34.612378012999955]},"geometry_name":"geom","properties":{"objectid":95,"nompar":"TRES DE FEBRERO","nombre":"U.S. Nº 8 VA. MATHEU","codigo":"84000284","jurisdicci":"MUNI","rsanit_08":"VII","tipo_est":"esidt","loc":"Caseros","cp":"1678","direccion":"J. Spandonari N° 739","tel":"011-47500453","email":null,"camas":0}},{"type":"Feature","id":"salud2012_publicos.96","geometry":{"type":"Point","coordinates":[-58.542125626999905,-34.62474017499994]},"geometry_name":"geom","properties":{"objectid":96,"nompar":"TRES DE FEBRERO","nombre":"C. MATERNO INFANTIL Nº 1","codigo":"84000292","jurisdicci":"MUNI","rsanit_08":"VII","tipo_est":"esidt","loc":"Ciudadela","cp":"1702","direccion":"Paso y Pasteur Ejército de los Andes","tel":"011-44884777","email":null,"camas":0}},{"type":"Feature","id":"salud2012_publicos.97","geometry":{"type":"Point","coordinates":[-58.59473978099993,-34.597298990999946]},"geometry_name":"geom","properties":{"objectid":97,"nompar":"TRES DE FEBRERO","nombre":"U.S. Nº 7","codigo":"84000381","jurisdicci":"MUNI","rsanit_08":"VII","tipo_est":"esidt","loc":"El Palomar","cp":"1682","direccion":"Matienzo N° 2630","tel":"011-47513251/3247","email":null,"camas":0}},{"type":"Feature","id":"salud2012_publicos.98","geometry":{"type":"Point","coordinates":[-58.60365019099993,-34.576412518999916]},"geometry_name":"geom","properties":{"objectid":98,"nompar":"TRES DE FEBRERO","nombre":"U.S. Nº 9 PABLO PODESTA","codigo":"84000322","jurisdicci":"MUNI","rsanit_08":"VII","tipo_est":"esidt","loc":"Pablo Podestá","cp":"1657","direccion":"Julio Moreno N° 1820","tel":"011-47390224","email":null,"camas":0}},{"type":"Feature","id":"salud2012_publicos.99","geometry":{"type":"Point","coordinates":[-58.52813213299993,-34.60222541599995]},"geometry_name":"geom","properties":{"objectid":99,"nompar":"TRES DE FEBRERO","nombre":"U.S. Nº 3","codigo":"84000071","jurisdicci":"MUNI","rsanit_08":"VII","tipo_est":"esidt","loc":"Sáenz Peña","cp":"1674","direccion":"Av. América N° 651","tel":"011-47575555/0093","email":null,"camas":0}},{"type":"Feature","id":"salud2012_publicos.100","geometry":{"type":"Point","coordinates":[-58.566799431999925,-34.603119705999916]},"geometry_name":"geom","properties":{"objectid":100,"nompar":"TRES DE FEBRERO","nombre":"U.S.M. Nº 2","codigo":"84000543","jurisdicci":"MUNI","rsanit_08":"VII","tipo_est":"esidt","loc":"Caseros","cp":"1678","direccion":"Juan B. Alberdi N° 5030","tel":"011-47503388","email":null,"camas":0}},{"type":"Feature","id":"salud2012_publicos.101","geometry":{"type":"Point","coordinates":[-58.56728668699992,-34.603099785999916]},"geometry_name":"geom","properties":{"objectid":101,"nompar":"TRES DE FEBRERO","nombre":"U.S.M. Nº 1","codigo":"84000535","jurisdicci":"MUNI","rsanit_08":"VII","tipo_est":"esidt","loc":"Caseros","cp":"1678","direccion":"Juan B. Alberdi y Curapaligüe","tel":"011-47503388/7977","email":null,"camas":0}},{"type":"Feature","id":"salud2012_publicos.102","geometry":{"type":"Point","coordinates":[-58.84901039099992,-34.32492753099996]},"geometry_name":"geom","properties":{"objectid":102,"nompar":"ESCOBAR","nombre":"C.S. Bº LOMA VERDE","codigo":"25200113","jurisdicci":"MUNI","rsanit_08":"V","tipo_est":"esidt","loc":"Loma Verde","cp":"1625","direccion":"Calle 119 y Ruta 9 Km. 55.500","tel":"03488-494563","email":null,"camas":0}},{"type":"Feature","id":"salud2012_publicos.103","geometry":{"type":"Point","coordinates":[-58.81738481299993,-34.35162973999991]},"geometry_name":"geom","properties":{"objectid":103,"nompar":"ESCOBAR","nombre":"C.S.P. CARLOS MENEM JR.","codigo":"25200253","jurisdicci":"MUNI","rsanit_08":"V","tipo_est":"esidt","loc":"Belén de Escobar","cp":"1625","direccion":"Las Orquídeas y Junquillo","tel":"03488-430599","email":null,"camas":0}},{"type":"Feature","id":"salud2012_publicos.104","geometry":{"type":"Point","coordinates":[-58.824997011999926,-34.38421869299992]},"geometry_name":"geom","properties":{"objectid":104,"nompar":"ESCOBAR","nombre":"C.S. DR. HORACIO CANESI","codigo":"25200091","jurisdicci":"MUNI","rsanit_08":"V","tipo_est":"esidt","loc":"Matheu","cp":"1627","direccion":"Sarmiento N° 41","tel":"03488-462759","email":null,"camas":0}},{"type":"Feature","id":"salud2012_publicos.105","geometry":{"type":"Point","coordinates":[-58.77344973599992,-34.40152477799995]},"geometry_name":"geom","properties":{"objectid":105,"nompar":"ESCOBAR","nombre":"CAPS EVA PERON","codigo":"25200105","jurisdicci":"MUNI","rsanit_08":"V","tipo_est":"esidt","loc":"Maquinista Savio","cp":"1620","direccion":"Jilgueros y Los Gladiolos S/N Bo. Amancay","tel":"03488-481137","email":null,"camas":0}},{"type":"Feature","id":"salud2012_publicos.106","geometry":{"type":"Point","coordinates":[-58.766602717999945,-34.413809226999945]},"geometry_name":"geom","properties":{"objectid":106,"nompar":"ESCOBAR","nombre":"C.S. ALFREDO VILAR","codigo":"25200237","jurisdicci":"MUNI","rsanit_08":"V","tipo_est":"esidt","loc":"Maquinista Savio","cp":"1620","direccion":"Formosa y Corrientes S/N Bo. Ovejero Urquiza","tel":"03488-481136","email":null,"camas":0}},{"type":"Feature","id":"salud2012_publicos.107","geometry":{"type":"Point","coordinates":[-58.753891713999906,-34.394346009999936]},"geometry_name":"geom","properties":{"objectid":107,"nompar":"ESCOBAR","nombre":"C.S. CORONEL DORREGO","codigo":"25200229","jurisdicci":"MUNI","rsanit_08":"V","tipo_est":"esidt","loc":"Ingeniero  Maschwitz","cp":"1623","direccion":"Las Retamas N° 888 Bo. Lambaré","tel":"03488-446198","email":null,"camas":0}},{"type":"Feature","id":"salud2012_publicos.108","geometry":{"type":"Point","coordinates":[-58.73309933299993,-34.42141015899995]},"geometry_name":"geom","properties":{"objectid":108,"nompar":"ESCOBAR","nombre":"CAPS LUIS RESIO","codigo":"25200067","jurisdicci":"MUNI","rsanit_08":"V","tipo_est":"esidt","loc":"Garín","cp":"1619","direccion":"Horacio Dupuy y Churich S/N","tel":"03488-477862/2727","email":null,"camas":0}},{"type":"Feature","id":"salud2012_publicos.109","geometry":{"type":"Point","coordinates":[-58.72337509099992,-34.436543814999936]},"geometry_name":"geom","properties":{"objectid":109,"nompar":"ESCOBAR","nombre":"CAPS RAMON CARRILLO","codigo":"25200270","jurisdicci":"MUNI","rsanit_08":"V","tipo_est":"esidt","loc":"Garín","cp":"1619","direccion":"Misiones Salesianas y Piedrabuena Bo. San Javier","tel":"03327-415050","email":null,"camas":0}},{"type":"Feature","id":"salud2012_publicos.110","geometry":{"type":"Point","coordinates":[-58.73626320799991,-34.45433301799994]},"geometry_name":"geom","properties":{"objectid":110,"nompar":"ESCOBAR","nombre":"CAPS CARLOS SELLES","codigo":"25200164","jurisdicci":"MUNI","rsanit_08":"V","tipo_est":"esidt","loc":"Garín","cp":"1619","direccion":"Pablo Marín e/Islas Malvinas y Escalabrini Ortiz *","tel":"02320-493444","email":null,"camas":0}},{"type":"Feature","id":"salud2012_publicos.111","geometry":{"type":"Point","coordinates":[-58.73651228199992,-34.38910090299993]},"geometry_name":"geom","properties":{"objectid":111,"nompar":"ESCOBAR","nombre":"C.S. ARGENTINO TORRES","codigo":"25200041","jurisdicci":"MUNI","rsanit_08":"V","tipo_est":"esidt","loc":"Ingeniero  Maschwitz","cp":"1623","direccion":"La Plata N° 1191","tel":"03488-446197/449924","email":null,"camas":0}},{"type":"Feature","id":"salud2012_publicos.112","geometry":{"type":"Point","coordinates":[-58.759935027999916,-34.54052792199991]},"geometry_name":"geom","properties":{"objectid":112,"nompar":"JOSE C. PAZ","nombre":"C.A. Bº LAS ACACIAS","codigo":"41200591","jurisdicci":"MUNI","rsanit_08":"V","tipo_est":"esidt","loc":"José C. Paz","cp":"1665","direccion":"Gral. Pintos y E. Duarte de Perón","tel":"02320-463432","email":null,"camas":0}},{"type":"Feature","id":"salud2012_publicos.113","geometry":{"type":"Point","coordinates":[-58.79962114999995,-34.511449386999914]},"geometry_name":"geom","properties":{"objectid":113,"nompar":"JOSE C. PAZ","nombre":"C.S. JUAN VUCETICH","codigo":"41200558","jurisdicci":"MUNI","rsanit_08":"V","tipo_est":"esidt","loc":"José C. Paz","cp":"1665","direccion":"Guanacaste y Crucero La Argentina N° 442","tel":"02320-437098","email":null,"camas":0}},{"type":"Feature","id":"salud2012_publicos.114","geometry":{"type":"Point","coordinates":[-58.817706614999906,-34.511697575999904]},"geometry_name":"geom","properties":{"objectid":114,"nompar":"JOSE C. PAZ","nombre":"C.A. SAN ATILIO","codigo":"41200698","jurisdicci":"MUNI","rsanit_08":"V","tipo_est":"esidt","loc":"José C. Paz","cp":"1665","direccion":"Miller e/San Blas y Managua","tel":"02320-452072","email":null,"camas":0}},{"type":"Feature","id":"salud2012_publicos.115","geometry":{"type":"Point","coordinates":[-58.78537959399995,-34.54095417499991]},"geometry_name":"geom","properties":{"objectid":115,"nompar":"JOSE C. PAZ","nombre":"C.A. MIRADOR ALTUBE","codigo":"41200418","jurisdicci":"MUNI","rsanit_08":"V","tipo_est":"esidt","loc":"José C. Paz","cp":"1665","direccion":"Rura Prov. 197 y Tres María Salto N° 5452","tel":"02320-439580","email":null,"camas":0}},{"type":"Feature","id":"salud2012_publicos.116","geometry":{"type":"Point","coordinates":[-58.76163952499991,-34.5059639129999]},"geometry_name":"geom","properties":{"objectid":116,"nompar":"JOSE C. PAZ","nombre":"C.A. Bº ALBERDI","codigo":"41200574","jurisdicci":"MUNI","rsanit_08":"V","tipo_est":"esidt","loc":"José C. Paz","cp":"1665","direccion":"Florida y Montes de Oca","tel":"02320-465917","email":null,"camas":0}},{"type":"Feature","id":"salud2012_publicos.117","geometry":{"type":"Point","coordinates":[-58.73746455199995,-34.52065915599991]},"geometry_name":"geom","properties":{"objectid":117,"nompar":"JOSE C. PAZ","nombre":"C.A. 9 DE JULIO","codigo":"41200388","jurisdicci":"MUNI","rsanit_08":"V","tipo_est":"esidt","loc":"José C. Paz","cp":"1665","direccion":"Maestro A. D'Elía N° 4265","tel":"02320-436930","email":null,"camas":0}},{"type":"Feature","id":"salud2012_publicos.118","geometry":{"type":"Point","coordinates":[-58.77211844499993,-34.52199706299996]},"geometry_name":"geom","properties":{"objectid":118,"nompar":"JOSE C. PAZ","nombre":"C.A. LA PAZ","codigo":"41200663","jurisdicci":"MUNI","rsanit_08":"V","tipo_est":"esidt","loc":"José C. Paz","cp":"1665","direccion":"Catañeda y Oribe","tel":"02320-424672","email":null,"camas":0}},{"type":"Feature","id":"salud2012_publicos.119","geometry":{"type":"Point","coordinates":[-58.7943217319999,-34.52933917799993]},"geometry_name":"geom","properties":{"objectid":119,"nompar":"JOSE C. PAZ","nombre":"C.A. LA PRIMAVERA","codigo":"41200680","jurisdicci":"MUNI","rsanit_08":"V","tipo_est":"esidt","loc":"José C. Paz","cp":"1665","direccion":"Ayacucho y Santa Marta","tel":"02320-451999","email":null,"camas":0}},{"type":"Feature","id":"salud2012_publicos.120","geometry":{"type":"Point","coordinates":[-58.7743727159999,-34.5376090229999]},"geometry_name":"geom","properties":{"objectid":120,"nompar":"JOSE C. PAZ","nombre":"C.A. LAS HERAS","codigo":"41200671","jurisdicci":"MUNI","rsanit_08":"V","tipo_est":"esidt","loc":"José C. Paz","cp":"1665","direccion":"Cnel. Arias y Av. Sarmiento","tel":"02320-462604","email":null,"camas":0}},{"type":"Feature","id":"salud2012_publicos.121","geometry":{"type":"Point","coordinates":[-58.72296316399991,-34.519069379999905]},"geometry_name":"geom","properties":{"objectid":121,"nompar":"JOSE C. PAZ","nombre":"C.A. SAN ROQUE","codigo":"41200396","jurisdicci":"MUNI","rsanit_08":"V","tipo_est":"esidt","loc":"José C. Paz","cp":"1665","direccion":"Cacique Colique y Pavón N° 3545","tel":"011-44514327","email":null,"camas":0}},{"type":"Feature","id":"salud2012_publicos.122","geometry":{"type":"Point","coordinates":[-58.7867896379999,-34.509857868999916]},"geometry_name":"geom","properties":{"objectid":122,"nompar":"JOSE C. PAZ","nombre":"C.A. SAGRADA FAMILIA","codigo":"41200817","jurisdicci":"MUNI","rsanit_08":"V","tipo_est":"esidt","loc":"José C. Paz","cp":"1665","direccion":"Uspallata y Londres n| 35","tel":"02320-445857","email":null,"camas":0}},{"type":"Feature","id":"salud2012_publicos.123","geometry":{"type":"Point","coordinates":[-58.72726019999993,-34.52116595299992]},"geometry_name":"geom","properties":{"objectid":123,"nompar":"JOSE C. PAZ","nombre":"C.A. ZONA NORTE","codigo":"41200965","jurisdicci":"MUNI","rsanit_08":"V","tipo_est":"esidt","loc":"José C. Paz","cp":"1665","direccion":"Malnatti  N° 3759 e/Chile y M. Cané","tel":"02320-425432","email":null,"camas":0}},{"type":"Feature","id":"salud2012_publicos.124","geometry":{"type":"Point","coordinates":[-58.747740646999944,-34.5375379969999]},"geometry_name":"geom","properties":{"objectid":124,"nompar":"JOSE C. PAZ","nombre":"C.A. Bº SUIZO INFICO","codigo":"41200957","jurisdicci":"MUNI","rsanit_08":"V","tipo_est":"esidt","loc":"José C. Paz","cp":"1665","direccion":"Balcarce N° 3812","tel":"02320-437049","email":null,"camas":0}},{"type":"Feature","id":"salud2012_publicos.125","geometry":{"type":"Point","coordinates":[-58.738148348999914,-34.50908127099996]},"geometry_name":"geom","properties":{"objectid":125,"nompar":"JOSE C. PAZ","nombre":"C.A. Bº EL OMBU","codigo":"41200931","jurisdicci":"MUNI","rsanit_08":"V","tipo_est":"esidt","loc":"José C. Paz","cp":"1665","direccion":"Arenales N° 362","tel":"02320-436966","email":null,"camas":0}},{"type":"Feature","id":"salud2012_publicos.126","geometry":{"type":"Point","coordinates":[-58.812417602999915,-34.50595433899991]},"geometry_name":"geom","properties":{"objectid":126,"nompar":"JOSE C. PAZ","nombre":"C.A. Bº URQUIZA","codigo":"41201023","jurisdicci":"MUNI","rsanit_08":"V","tipo_est":"esidt","loc":"José C. Paz","cp":"1665","direccion":"Bolivar esq. Caracas","tel":"02320-437666","email":null,"camas":0}},{"type":"Feature","id":"salud2012_publicos.127","geometry":{"type":"Point","coordinates":[-58.79849272899992,-34.50206390699992]},"geometry_name":"geom","properties":{"objectid":127,"nompar":"JOSE C. PAZ","nombre":"C.A. SOL Y VERDE","codigo":"41201066","jurisdicci":"MUNI","rsanit_08":"V","tipo_est":"esidt","loc":"José C. Paz","cp":"1665","direccion":"Dinamarca y Finlay","tel":"02320-491561","email":null,"camas":0}},{"type":"Feature","id":"salud2012_publicos.128","geometry":{"type":"Point","coordinates":[-58.747297673999924,-34.505697321999946]},"geometry_name":"geom","properties":{"objectid":128,"nompar":"JOSE C. PAZ","nombre":"C.A. SANTA PAULA","codigo":"41201091","jurisdicci":"MUNI","rsanit_08":"V","tipo_est":"esidt","loc":"José C. Paz","cp":"1665","direccion":"Piñeyro N° 755","tel":"02320-447291","email":null,"camas":0}},{"type":"Feature","id":"salud2012_publicos.129","geometry":{"type":"Point","coordinates":[-58.76890193499992,-34.51596601199992]},"geometry_name":"geom","properties":{"objectid":129,"nompar":"JOSE C. PAZ","nombre":"U.S.M. TRAILER PIÑEYRO","codigo":"41201104","jurisdicci":"MUNI","rsanit_08":"V","tipo_est":"esidt","loc":"José C. Paz","cp":"1665","direccion":"Pedernera y Lacroce","tel":"02320-431127","email":null,"camas":0}},{"type":"Feature","id":"salud2012_publicos.130","geometry":{"type":"Point","coordinates":[-58.74060479499991,-34.53371850599996]},"geometry_name":"geom","properties":{"objectid":130,"nompar":"JOSE C. PAZ","nombre":"C. S. SUIZO IDEAL","codigo":"41201112","jurisdicci":"MUNI","rsanit_08":"V","tipo_est":"esidt","loc":"José C. Paz","cp":"1665","direccion":"Chile y Roque Saenz Peña","tel":"02320-438808","email":null,"camas":0}},{"type":"Feature","id":"salud2012_publicos.131","geometry":{"type":"Point","coordinates":[-58.76594064199992,-34.52498506499995]},"geometry_name":"geom","properties":{"objectid":131,"nompar":"JOSE C. PAZ","nombre":"HTAL. OFTALM. Presidente Juan D. Perón","codigo":"41201187","jurisdicci":"MUNI","rsanit_08":"V","tipo_est":"esidte","loc":"José C. Paz","cp":"1665","direccion":"Ruta 197 y Chacabuco","tel":"02320-445449","email":null,"camas":0}},{"type":"Feature","id":"salud2012_publicos.132","geometry":{"type":"Point","coordinates":[-58.615248169999916,-34.56135528599992]},"geometry_name":"geom","properties":{"objectid":132,"nompar":"TRES DE FEBRERO","nombre":"C. MATERNO INFANTIL Nº 2","codigo":"84000306","jurisdicci":"MUNI","rsanit_08":"VII","tipo_est":"esidt","loc":"Loma Hermosa","cp":"1657","direccion":"Gabino Ezeiza N° 10050","tel":"011-47690932","email":null,"camas":0}},{"type":"Feature","id":"salud2012_publicos.133","geometry":{"type":"Point","coordinates":[-58.533653553999955,-34.60682168599993]},"geometry_name":"geom","properties":{"objectid":133,"nompar":"TRES DE FEBRERO","nombre":"C. MATERNO INFANTIL Nº 3","codigo":"84000501","jurisdicci":"MUNI","rsanit_08":"VII","tipo_est":"esidt","loc":"Villa Raffo","cp":"1674","direccion":"Ntra. Sra. del Loreto N° 2653","tel":"011-47127434","email":null,"camas":0}},{"type":"Feature","id":"salud2012_publicos.134","geometry":{"type":"Point","coordinates":[-58.567492340999934,-34.60309113099993]},"geometry_name":"geom","properties":{"objectid":134,"nompar":"TRES DE FEBRERO","nombre":"CENTRO MUN. de la Salud","codigo":"84000527","jurisdicci":"MUNI","rsanit_08":"VII","tipo_est":"esidt","loc":"Caseros","cp":"1678","direccion":"Juan B. Alberdi y Curapaligüe","tel":"011-47503388/7977","email":null,"camas":0}},{"type":"Feature","id":"salud2012_publicos.135","geometry":{"type":"Point","coordinates":[-58.74894698899993,-34.52213596899992]},"geometry_name":"geom","properties":{"objectid":135,"nompar":"JOSE C. PAZ","nombre":"C. INTEGRAL DEL DIABETICO","codigo":"41201179","jurisdicci":"MUNI","rsanit_08":"V","tipo_est":"esidte","loc":"José C. Paz","cp":"1665","direccion":"Zuviría esq. Lavalle","tel":"02320-428129","email":null,"camas":0}},{"type":"Feature","id":"salud2012_publicos.136","geometry":{"type":"Point","coordinates":[-58.76822607899993,-34.526143400999956]},"geometry_name":"geom","properties":{"objectid":136,"nompar":"JOSE C. PAZ","nombre":"C. DEL DISCAPACITADO","codigo":"41201171","jurisdicci":"MUNI","rsanit_08":"V","tipo_est":"esit","loc":"José C. Paz","cp":"1665","direccion":"Hipólito Irigoyen N° 3596","tel":"02320-431235","email":null,"camas":0}},{"type":"Feature","id":"salud2012_publicos.137","geometry":{"type":"Point","coordinates":[-58.549287973999924,-34.54769345799991]},"geometry_name":"geom","properties":{"objectid":137,"nompar":"GENERAL SAN MARTIN","nombre":"HTAL. DR. E. MARENGO","codigo":"37100114","jurisdicci":"MUNI","rsanit_08":"V","tipo_est":"ecig","loc":"Villa Ballester","cp":"1653","direccion":"República N° 10","tel":"011-48475033","email":null,"camas":0}},{"type":"Feature","id":"salud2012_publicos.138","geometry":{"type":"Point","coordinates":[-58.57651399999992,-34.563423723999904]},"geometry_name":"geom","properties":{"objectid":138,"nompar":"GENERAL SAN MARTIN","nombre":"C.S. RAMON CARRILLO","codigo":"37100246","jurisdicci":"MUNI","rsanit_08":"V","tipo_est":"esidt","loc":"Villa Bonich","cp":"1650","direccion":"Ocampo N° 5023","tel":"011-48300690","email":null,"camas":0}},{"type":"Feature","id":"salud2012_publicos.139","geometry":{"type":"Point","coordinates":[-58.57423573799991,-34.57416367399992]},"geometry_name":"geom","properties":{"objectid":139,"nompar":"GENERAL SAN MARTIN","nombre":"C.S.BILINGHURST","codigo":"37100203","jurisdicci":"MUNI","rsanit_08":"V","tipo_est":"esidt","loc":"Billinghurst","cp":"1650","direccion":"1era. Junta N° 5745","tel":"011-45127040/35","email":"nmarengo@arnet.com.ar","camas":0}},{"type":"Feature","id":"salud2012_publicos.140","geometry":{"type":"Point","coordinates":[-58.575188478999905,-34.530155383999954]},"geometry_name":"geom","properties":{"objectid":140,"nompar":"GENERAL SAN MARTIN","nombre":"C.S. DR. LUIS AGOTE","codigo":"37100033","jurisdicci":"MUNI","rsanit_08":"V","tipo_est":"esidt","loc":"José León Suarez","cp":"1655","direccion":"Calle N° 55 J. V. González N° 50","tel":"011-45801056/57","email":null,"camas":0}},{"type":"Feature","id":"salud2012_publicos.141","geometry":{"type":"Point","coordinates":[-58.56549966299991,-34.52712963899995]},"geometry_name":"geom","properties":{"objectid":141,"nompar":"GENERAL SAN MARTIN","nombre":"U.S. Nº 10VA. ESPERANZA","codigo":"37100106","jurisdicci":"MUNI","rsanit_08":"V","tipo_est":"esidt","loc":"José León Suarez","cp":"1655","direccion":"Garibaldi N° 1897","tel":"011-45801042","email":null,"camas":0}},{"type":"Feature","id":"salud2012_publicos.142","geometry":{"type":"Point","coordinates":[-58.544735508999906,-34.58123083399994]},"geometry_name":"geom","properties":{"objectid":142,"nompar":"GENERAL SAN MARTIN","nombre":"HTAL. DR. DIEGO THOMPSON","codigo":"37100084","jurisdicci":"MUNI","rsanit_08":"V","tipo_est":"ecig","loc":"General San Martín","cp":"1650","direccion":"Avellaneda N° 33","tel":"011-48300684/7","email":"administracion-evaperon@ms.gba.gov.ar","camas":136}},{"type":"Feature","id":"salud2012_publicos.143","geometry":{"type":"Point","coordinates":[-58.52474464499994,-34.59269230499996]},"geometry_name":"geom","properties":{"objectid":143,"nompar":"GENERAL SAN MARTIN","nombre":"C.S. Nº 13 VA. LINCH","codigo":"37100556","jurisdicci":"MUNI","rsanit_08":"V","tipo_est":"esidt","loc":"Villa Lynch","cp":"1672","direccion":"Azcuénaga  N° 226","tel":"011-48300709","email":null,"camas":0}},{"type":"Feature","id":"salud2012_publicos.144","geometry":{"type":"Point","coordinates":[-58.530106908999926,-34.54608653799994]},"geometry_name":"geom","properties":{"objectid":144,"nompar":"GENERAL SAN MARTIN","nombre":"C.S. Nº 3 VA. CONCEPCION","codigo":"37100131","jurisdicci":"MUNI","rsanit_08":"V","tipo_est":"esidt","loc":"Villa Concepción","cp":"1651","direccion":"Calle 88(Independencia) N° 876","tel":"011-48300711/23","email":"caps9sanmartin@arnet.com.ar","camas":0}},{"type":"Feature","id":"salud2012_publicos.145","geometry":{"type":"Point","coordinates":[-1.7976931348623157E308,-1.7976931348623157E308]},"geometry_name":"geom","properties":{"objectid":145,"nompar":"GENERAL SAN MARTIN","nombre":"U.S. Nº 12 VA. PIAGGIO","codigo":"37100530","jurisdicci":"MUNI","rsanit_08":"V","tipo_est":"esidt","loc":"Villa Piaggio","cp":"1650","direccion":"Parravicini N° 965","tel":"011-48300710","email":null,"camas":0}},{"type":"Feature","id":"salud2012_publicos.146","geometry":{"type":"Point","coordinates":[-58.56416764699992,-34.58437976899995]},"geometry_name":"geom","properties":{"objectid":146,"nompar":"GENERAL SAN MARTIN","nombre":"CAP Nº 19","codigo":"37100742","jurisdicci":"MUNI","rsanit_08":"V","tipo_est":"esidt","loc":"General San Martín","cp":"1650","direccion":"La Crujía N° 5815 Bo. Villa Libertad","tel":"011-48300310","email":null,"camas":0}},{"type":"Feature","id":"salud2012_publicos.147","geometry":{"type":"Point","coordinates":[-58.55043055099992,-34.63060967999991]},"geometry_name":"geom","properties":{"objectid":147,"nompar":"TRES DE FEBRERO","nombre":"H.Z.G.A. DR. RAMON CARRILLO","codigo":"84000021","jurisdicci":"PROV","rsanit_08":"VII","tipo_est":"ecig","loc":"Ciudadela","cp":"1702","direccion":"H. Irigoyen N° 1051","tel":"011-46531061/65","email":null,"camas":94}},{"type":"Feature","id":"salud2012_publicos.148","geometry":{"type":"Point","coordinates":[-58.62055838099991,-34.56283926099991]},"geometry_name":"geom","properties":{"objectid":148,"nompar":"TRES DE FEBRERO","nombre":"H.Z.G.A. DR. C. BOCALANDRO","codigo":"84000497","jurisdicci":"PROV","rsanit_08":"VII","tipo_est":"ecig","loc":"Loma Hermosa","cp":"1657","direccion":"Ruta 8 Km. 20,5 N° 9100","tel":"011-48410219","email":"gestionpaciente@gmail.com","camas":143}},{"type":"Feature","id":"salud2012_publicos.149","geometry":{"type":"Point","coordinates":[-58.740428651999935,-34.51685551199995]},"geometry_name":"geom","properties":{"objectid":149,"nompar":"JOSE C. PAZ","nombre":"HTAL. Z. GOB. MERCANTE","codigo":"41201074","jurisdicci":"PROV","rsanit_08":"V","tipo_est":"ecig","loc":"José C. Paz","cp":"1665","direccion":"René Favaloro N° 4750","tel":"02320-413950/434100","email":null,"camas":144}},{"type":"Feature","id":"salud2012_publicos.150","geometry":{"type":"Point","coordinates":[-58.753071295999916,-34.51727523099993]},"geometry_name":"geom","properties":{"objectid":150,"nompar":"JOSE C. PAZ","nombre":"DIR. DE MEDIO AMBIENTE Y ZOONOSIS","codigo":"41201211","jurisdicci":"MUNI","rsanit_08":"V","tipo_est":"esidte","loc":"José C. Paz","cp":"1665","direccion":"Florida y Arenales","tel":"02320-446535","email":null,"camas":0}},{"type":"Feature","id":"salud2012_publicos.151","geometry":{"type":"Point","coordinates":[-58.79000273199995,-34.34307030799994]},"geometry_name":"geom","properties":{"objectid":151,"nompar":"ESCOBAR","nombre":"H.I.G.A. DR. ENRIQUE ERILL","codigo":"25200032","jurisdicci":"PROV","rsanit_08":"V","tipo_est":"ecig","loc":"Belén de Escobar","cp":"1625","direccion":"Eugenia Tapia de Cruz S/N","tel":"03488-433143/130","email":null,"camas":138}},{"type":"Feature","id":"salud2012_publicos.152","geometry":{"type":"Point","coordinates":[-58.76373143299992,-34.524301100999935]},"geometry_name":"geom","properties":{"objectid":152,"nompar":"JOSE C. PAZ","nombre":"DIR. Prevención a las Adicciones","codigo":"41201228","jurisdicci":"MUNI","rsanit_08":"V","tipo_est":"esit","loc":"José C. Paz","cp":"1665","direccion":"Ruta 197 N° 2945 1er. Piso","tel":"02320-440518","email":null,"camas":0}},{"type":"Feature","id":"salud2012_publicos.153","geometry":{"type":"Point","coordinates":[-58.7828033479999,-34.51291896099991]},"geometry_name":"geom","properties":{"objectid":153,"nompar":"JOSE C. PAZ","nombre":"TRAILER S. Piñeiro II","codigo":"41201203","jurisdicci":"MUNI","rsanit_08":"V","tipo_est":"esidt","loc":"José C. Paz","cp":"1665","direccion":"1 de Septiembre y C. Puch","tel":"02320-421983","email":null,"camas":0}},{"type":"Feature","id":"salud2012_publicos.154","geometry":{"type":"Point","coordinates":[-58.56740564599994,-34.603094778999946]},"geometry_name":"geom","properties":{"objectid":154,"nompar":"TRES DE FEBRERO","nombre":"CENTRO DE ZOONOSIS MUN.TRES DE FEBRERO","codigo":"84000519","jurisdicci":"MUNI","rsanit_08":"VII","tipo_est":"esidte","loc":"Caseros","cp":"1678","direccion":"Juan B. Alberdi y Curapaligüe","tel":"011-47503388/7977","email":null,"camas":0}},{"type":"Feature","id":"salud2012_publicos.155","geometry":{"type":"Point","coordinates":[-58.96806170699995,-34.60055512799994]},"geometry_name":"geom","properties":{"objectid":155,"nompar":"GENERAL RODRIGUEZ","nombre":"C.S. Nº 15 PARQUE IRIGOYEN","codigo":"36400254","jurisdicci":"MUNI","rsanit_08":"VII","tipo_est":"esidt","loc":"General Rodríguez","cp":"1748","direccion":"Oliveira e/Baratini y Ayudkhan S/N","tel":null,"email":null,"camas":0}},{"type":"Feature","id":"salud2012_publicos.156","geometry":{"type":"Point","coordinates":[-58.91190612399993,-34.45513680899995]},"geometry_name":"geom","properties":{"objectid":156,"nompar":"PILAR","nombre":"CENTRO de Referencia MUN. de Salud Mental","codigo":"63800545","jurisdicci":"MUNI","rsanit_08":"V","tipo_est":"esit","loc":"Pilar","cp":"1629","direccion":"Ituzaingó N° 368","tel":null,"email":null,"camas":0}},{"type":"Feature","id":"salud2012_publicos.157","geometry":{"type":"Point","coordinates":[-59.45090879999992,-34.45286438099993]},"geometry_name":"geom","properties":{"objectid":157,"nompar":"SAN ANDRES DE GILES","nombre":"U.ODONTOLOGICA MOVIL","codigo":"72800102","jurisdicci":"MUNI","rsanit_08":"IV","tipo_est":"esidt","loc":"San Andrés de Giles","cp":"6720","direccion":"Avda. Campero y Rawson","tel":"-","email":null,"camas":0}},{"type":"Feature","id":"salud2012_publicos.158","geometry":{"type":"Point","coordinates":[-58.70126576999991,-34.63068532299991]},"geometry_name":"geom","properties":{"objectid":158,"nompar":"ITUZAINGO","nombre":"HTAL. AT. PRIMARIA ITUZAINGO","codigo":"41000556","jurisdicci":"MUNI","rsanit_08":"VII","tipo_est":"esidt","loc":"Ituzaingó","cp":"1714","direccion":"Brandsen N° 3859","tel":"011-46215960/44813496/08009991999","email":null,"camas":0}},{"type":"Feature","id":"salud2012_publicos.159","geometry":{"type":"Point","coordinates":[-58.55362293399992,-34.571310775999905]},"geometry_name":"geom","properties":{"objectid":159,"nompar":"GENERAL SAN MARTIN","nombre":"H.I.G.A. EVA PERON","codigo":"37100092","jurisdicci":"PROV","rsanit_08":"V","tipo_est":"ecig","loc":"General San Martín","cp":"1650","direccion":"Ricardo Balbín N° 3200","tel":"011-47243000/241105","email":null,"camas":216}},{"type":"Feature","id":"salud2012_publicos.160","geometry":{"type":"Point","coordinates":[-58.52536248999991,-34.548410134999926]},"geometry_name":"geom","properties":{"objectid":160,"nompar":"GENERAL SAN MARTIN","nombre":"H.Z.G.A. GRAL. MANUEL BELGRANO","codigo":"37100181","jurisdicci":"PROV","rsanit_08":"V","tipo_est":"ecig","loc":"Villa Zagala","cp":"1651","direccion":"Av. Constituyentes N° 3120","tel":"011-47528450","email":null,"camas":126}},{"type":"Feature","id":"salud2012_publicos.161","geometry":{"type":"Point","coordinates":[-58.76528271799992,-34.524658813999906]},"geometry_name":"geom","properties":{"objectid":161,"nompar":"JOSE C. PAZ","nombre":"HTAL. ODON. EVA Perón","codigo":"41201163","jurisdicci":"MUNI","rsanit_08":"V","tipo_est":"esidte","loc":"José C. Paz","cp":"1665","direccion":"Ruta 197 N° 3050","tel":"02320-422260","email":null,"camas":0}},{"type":"Feature","id":"salud2012_publicos.162","geometry":{"type":"Point","coordinates":[-58.76340238699993,-34.524102426999946]},"geometry_name":"geom","properties":{"objectid":162,"nompar":"JOSE C. PAZ","nombre":"DEPTO. de Medicina Laboral","codigo":"41201121","jurisdicci":"MUNI","rsanit_08":"V","tipo_est":"ec","loc":"José C. Paz","cp":"1665","direccion":"Hipólito Irigoyen N° 2945","tel":"02320-440511/517","email":null,"camas":0}},{"type":"Feature","id":"salud2012_publicos.163","geometry":{"type":"Point","coordinates":[-58.763180065999904,-34.52396819099994]},"geometry_name":"geom","properties":{"objectid":163,"nompar":"JOSE C. PAZ","nombre":"EMERGENCIAS Y TRASLADOS","codigo":"41201083","jurisdicci":"MUNI","rsanit_08":"V","tipo_est":"ec","loc":"José C. Paz","cp":"1665","direccion":"Ruta 197 N° 2945 Planta Baja","tel":"02320-439300","email":null,"camas":0}},{"type":"Feature","id":"salud2012_publicos.164","geometry":{"type":"Point","coordinates":[-58.776097524999955,-34.507943936999936]},"geometry_name":"geom","properties":{"objectid":164,"nompar":"JOSE C. PAZ","nombre":"C.M.S. Salud para Mi Gente","codigo":"41201195","jurisdicci":"MUNI","rsanit_08":"V","tipo_est":"esidt","loc":"José C. Paz","cp":"1665","direccion":"Itinerante","tel":null,"email":null,"camas":0}},{"type":"Feature","id":"salud2012_publicos.165","geometry":{"type":"Point","coordinates":[-58.7671154329999,-34.52519361399993]},"geometry_name":"geom","properties":{"objectid":165,"nompar":"JOSE C. PAZ","nombre":"LAB. MUN. Dr. Federico Leloir","codigo":"41201220","jurisdicci":"MUNI","rsanit_08":"V","tipo_est":"esid","loc":"José C. Paz","cp":"1665","direccion":"Potosí N° 3286","tel":"02320-440519","email":null,"camas":0}},{"type":"Feature","id":"salud2012_publicos.166","geometry":{"type":"Point","coordinates":[-58.771517357999926,-34.506933483999944]},"geometry_name":"geom","properties":{"objectid":166,"nompar":"JOSE C. PAZ","nombre":"C.A. Frino Sur","codigo":"41201269","jurisdicci":"MUNI","rsanit_08":"V","tipo_est":"esidt","loc":"José C. Paz","cp":"1665","direccion":"Quiroz esq. Ugarteche N° 1956","tel":"02320-465723","email":null,"camas":0}},{"type":"Feature","id":"salud2012_publicos.167","geometry":{"type":"Point","coordinates":[-58.55976649299993,-34.60511931099995]},"geometry_name":"geom","properties":{"objectid":167,"nompar":"TRES DE FEBRERO","nombre":"HTAL. OFTALM. Norberto Di Próspero","codigo":"84001094","jurisdicci":"MUNI","rsanit_08":"VII","tipo_est":"esidte","loc":"Caseros","cp":"1678","direccion":"Valentín Gómez N° 4545","tel":"-","email":null,"camas":0}},{"type":"Feature","id":"salud2012_publicos.168","geometry":{"type":"Point","coordinates":[-58.55954863199992,-34.60512977999991]},"geometry_name":"geom","properties":{"objectid":168,"nompar":"TRES DE FEBRERO","nombre":"HTAL. ODON. Norberto Di Próspero","codigo":"84011086","jurisdicci":"MUNI","rsanit_08":"VII","tipo_est":"esidte","loc":"Caseros","cp":"1678","direccion":"Valentín Gómez N° 4545","tel":"-","email":null,"camas":0}},{"type":"Feature","id":"salud2012_publicos.169","geometry":{"type":"Point","coordinates":[-58.53913946499995,-34.57922754099991]},"geometry_name":"geom","properties":{"objectid":169,"nompar":"GENERAL SAN MARTIN","nombre":"DIR. MED. PREV.","codigo":"37100769","jurisdicci":"MUNI","rsanit_08":"V","tipo_est":"ec","loc":"General San Martín","cp":"1650","direccion":"Belgrano  N° 3747","tel":"011-48300339","email":null,"camas":0}},{"type":"Feature","id":"salud2012_publicos.170","geometry":{"type":"Point","coordinates":[-58.54150400399993,-34.583782673999906]},"geometry_name":"geom","properties":{"objectid":170,"nompar":"GENERAL SAN MARTIN","nombre":"HOGAR DE ANCIANOS Sarah Forrest de Cueli","codigo":"37100785","jurisdicci":"MUNI","rsanit_08":"V","tipo_est":"ecieg","loc":"General San Martín","cp":"1650","direccion":"Dardo Rocha N° 50","tel":"011-48300702","email":null,"camas":60}},{"type":"Feature","id":"salud2012_publicos.171","geometry":{"type":"Point","coordinates":[-58.53352090499993,-34.51638249999991]},"geometry_name":"geom","properties":{"objectid":171,"nompar":"VICENTE LOPEZ","nombre":"U.A.P. 25 DE MAYO","codigo":"86101169","jurisdicci":"MUNI","rsanit_08":"V","tipo_est":"esidt","loc":"Carapachay","cp":"1605","direccion":"R. Obligado N° 5280","tel":"011-47639157/47979320","email":"atprimaria@vicentelopez.gov.ar","camas":0}},{"type":"Feature","id":"salud2012_publicos.172","geometry":{"type":"Point","coordinates":[-58.496748056999934,-34.50359527799992]},"geometry_name":"geom","properties":{"objectid":172,"nompar":"VICENTE LOPEZ","nombre":"U.A.P. DR.ROTJER","codigo":"86101070","jurisdicci":"MUNI","rsanit_08":"V","tipo_est":"esidt","loc":"Olivos","cp":"1636","direccion":"D. F. Sarmiento N° 3551","tel":"011-45139863/47979320","email":"atprimaria@vicentelopez.gov.ar","camas":0}},{"type":"Feature","id":"salud2012_publicos.173","geometry":{"type":"Point","coordinates":[-58.48973533199995,-34.51229578899995]},"geometry_name":"geom","properties":{"objectid":173,"nompar":"VICENTE LOPEZ","nombre":"H.Z.ESP. DE ODONTO. Dr.Juan Carrea","codigo":"86100111","jurisdicci":"PROV","rsanit_08":"V","tipo_est":"esidte","loc":"Olivos","cp":"1636","direccion":"Juan de Garay N° 2478","tel":"011-47943818/38","email":"atprimaria@vicentelopez.gov.ar","camas":0}},{"type":"Feature","id":"salud2012_publicos.174","geometry":{"type":"Point","coordinates":[-58.743733282999926,-34.5473253909999]},"geometry_name":"geom","properties":{"objectid":174,"nompar":"SAN MIGUEL","nombre":"C.S. SUAREZ PARIS","codigo":"76001743","jurisdicci":"MUNI","rsanit_08":"V","tipo_est":"esidt","loc":"San Miguel","cp":"1663","direccion":"Tomas Edisson y Platón","tel":null,"email":null,"camas":0}},{"type":"Feature","id":"salud2012_publicos.175","geometry":{"type":"Point","coordinates":[-58.72196749199992,-34.52977235399993]},"geometry_name":"geom","properties":{"objectid":175,"nompar":"SAN MIGUEL","nombre":"C.S. LA CASITA","codigo":"76001758","jurisdicci":"MUNI","rsanit_08":"V","tipo_est":"esidt","loc":"San Miguel","cp":"1663","direccion":"Serano 2773 e/ Primera Junta y Salerno","tel":null,"email":null,"camas":0}},{"type":"Feature","id":"salud2012_publicos.176","geometry":{"type":"Point","coordinates":[-58.796780672999944,-34.354095910999945]},"geometry_name":"geom","properties":{"objectid":176,"nompar":"ESCOBAR","nombre":"C.S.M. Dr. Horacio Dupuy","codigo":"25200288","jurisdicci":"MUNI","rsanit_08":"V","tipo_est":"esidt","loc":"Belén de Escobar","cp":"1625","direccion":"Pellegrini y Travi","tel":"03488-430530","email":null,"camas":0}},{"type":"Feature","id":"salud2012_publicos.177","geometry":{"type":"Point","coordinates":[-58.79666357199994,-34.353986506999945]},"geometry_name":"geom","properties":{"objectid":177,"nompar":"ESCOBAR","nombre":"C. ODONTOLOGICO Dr. Nicolás Goñi","codigo":"25200423","jurisdicci":"MUNI","rsanit_08":"V","tipo_est":"esidte","loc":"Belén de Escobar","cp":"1625","direccion":"Travi N° 1215","tel":null,"email":null,"camas":0}},{"type":"Feature","id":"salud2012_publicos.178","geometry":{"type":"Point","coordinates":[-58.796589931999904,-34.35391770699994]},"geometry_name":"geom","properties":{"objectid":178,"nompar":"ESCOBAR","nombre":"LAB. de Análisis Clínicos","codigo":"25200431","jurisdicci":"MUNI","rsanit_08":"V","tipo_est":"esid","loc":"Belén de Escobar","cp":"1625","direccion":"Travi N° 1215 PA","tel":null,"email":null,"camas":0}},{"type":"Feature","id":"salud2012_publicos.179","geometry":{"type":"Point","coordinates":[-58.80779593799991,-34.74093723499993]},"geometry_name":"geom","properties":{"objectid":179,"nompar":"MARCOS PAZ","nombre":"U.S. Bº El Zorzal","codigo":"52500064","jurisdicci":"MUNI","rsanit_08":"VII","tipo_est":"esidt","loc":"Marcos Paz","cp":"1727","direccion":"Belisario Roldán  e/Filiberto y Troilo Bo. El Zor*","tel":"0220-4983102","email":null,"camas":0}},{"type":"Feature","id":"salud2012_publicos.180","geometry":{"type":"Point","coordinates":[-58.84060960399995,-34.79721366599995]},"geometry_name":"geom","properties":{"objectid":180,"nompar":"MARCOS PAZ","nombre":"U.S. Bº Gandara","codigo":"52500048","jurisdicci":"MUNI","rsanit_08":"VII","tipo_est":"esidt","loc":"Marcos Paz","cp":"1727","direccion":"Bodón y Zamudio Bo. Gándara","tel":"0220-4773334","email":null,"camas":0}},{"type":"Feature","id":"salud2012_publicos.181","geometry":{"type":"Point","coordinates":[-58.801432424999916,-34.751883998999915]},"geometry_name":"geom","properties":{"objectid":181,"nompar":"MARCOS PAZ","nombre":"U.S. Bº Rayo de Sol","codigo":"52500056","jurisdicci":"MUNI","rsanit_08":"VII","tipo_est":"esidt","loc":"Marcos Paz","cp":"1727","direccion":"Dorrego y El Estilo S/N Bo. Rayo de Sol","tel":"0220-4994244","email":null,"camas":0}},{"type":"Feature","id":"salud2012_publicos.182","geometry":{"type":"Point","coordinates":[-58.83159400599993,-34.78571188299992]},"geometry_name":"geom","properties":{"objectid":182,"nompar":"MARCOS PAZ","nombre":"HTAL. DR. A. D' AGNILLO","codigo":"52500013","jurisdicci":"MUNI","rsanit_08":"VII","tipo_est":"ecig","loc":"Marcos Paz","cp":"1727","direccion":"Alem N° 250","tel":"0220-4774907","email":null,"camas":90}},{"type":"Feature","id":"salud2012_publicos.183","geometry":{"type":"Point","coordinates":[-58.7051743639999,-34.90612938699991]},"geometry_name":"geom","properties":{"objectid":183,"nompar":"MARCOS PAZ","nombre":"U.S. Bº Lisandro de la Torre (Eva Peron)","codigo":"52500081","jurisdicci":"MUNI","rsanit_08":"VII","tipo_est":"esidt","loc":"Marcos Paz","cp":"1727","direccion":"Fallótico  Bo. Lisandro de La Torre","tel":"-","email":null,"camas":0}},{"type":"Feature","id":"salud2012_publicos.184","geometry":{"type":"Point","coordinates":[-58.80913124999995,-34.75882143799993]},"geometry_name":"geom","properties":{"objectid":184,"nompar":"MARCOS PAZ","nombre":"U.S. Bº Ntra Sra de la Paz (Heroes de Malvinas)","codigo":"52500099","jurisdicci":"MUNI","rsanit_08":"VII","tipo_est":"esidt","loc":"Marcos Paz","cp":"1727","direccion":"Eva Perón y El Criollo S/N Bo. Ntra Sra. De La Paz","tel":"0220-4983103","email":null,"camas":0}},{"type":"Feature","id":"salud2012_publicos.185","geometry":{"type":"Point","coordinates":[-58.88324133099991,-34.621687366999936]},"geometry_name":"geom","properties":{"objectid":185,"nompar":"GENERAL RODRIGUEZ","nombre":"U.S. Nº 9 PARQUE RIVADAVIA","codigo":"36400084","jurisdicci":"MUNI","rsanit_08":"VII","tipo_est":"esidt","loc":"General Rodríguez","cp":"1748","direccion":"Maipú y Sargento Cabral S/N","tel":null,"email":null,"camas":0}},{"type":"Feature","id":"salud2012_publicos.186","geometry":{"type":"Point","coordinates":[-58.88700300499994,-34.63155163499994]},"geometry_name":"geom","properties":{"objectid":186,"nompar":"GENERAL RODRIGUEZ","nombre":"U.S. Nº 5 GRAL. GUEMES","codigo":"36400173","jurisdicci":"MUNI","rsanit_08":"VII","tipo_est":"esidt","loc":"General Rodríguez","cp":"1748","direccion":"Blas Pascal e/Chaniar y Azuay S/N Bo. Gúemes","tel":null,"email":null,"camas":0}},{"type":"Feature","id":"salud2012_publicos.187","geometry":{"type":"Point","coordinates":[-58.8941253509999,-34.62718049999995]},"geometry_name":"geom","properties":{"objectid":187,"nompar":"GENERAL RODRIGUEZ","nombre":"C.S. Nº 13 ALTOS DEL OESTE","codigo":"36400220","jurisdicci":"MUNI","rsanit_08":"VII","tipo_est":"esidt","loc":"General Rodríguez","cp":"1748","direccion":"Central y Florida S/N Bo. Altos del Oeste","tel":null,"email":null,"camas":0}},{"type":"Feature","id":"salud2012_publicos.188","geometry":{"type":"Point","coordinates":[-58.87924975099992,-34.61104832099994]},"geometry_name":"geom","properties":{"objectid":188,"nompar":"GENERAL RODRIGUEZ","nombre":"U.S. Nº 8 AGUA DE ORO","codigo":"36400092","jurisdicci":"MUNI","rsanit_08":"VII","tipo_est":"esidt","loc":"Agua de Oro","cp":"1746","direccion":"San Martín e/French y Pueyrredón S/N","tel":null,"email":"omoyano@sommer.gov.ar","camas":0}},{"type":"Feature","id":"salud2012_publicos.189","geometry":{"type":"Point","coordinates":[-58.89995705699994,-34.59257447299996]},"geometry_name":"geom","properties":{"objectid":189,"nompar":"GENERAL RODRIGUEZ","nombre":"U.S. Nº 12 LOS AROMOS","codigo":"36400211","jurisdicci":"MUNI","rsanit_08":"VII","tipo_est":"esidt","loc":"Barrio Los Aromos","cp":"1748","direccion":"Sarmiento y Ecuador S/N","tel":null,"email":null,"camas":0}},{"type":"Feature","id":"salud2012_publicos.190","geometry":{"type":"Point","coordinates":[-58.912187271999926,-34.60418808399993]},"geometry_name":"geom","properties":{"objectid":190,"nompar":"GENERAL RODRIGUEZ","nombre":"U.S. Nº 3 LOS NARANJOS","codigo":"36400076","jurisdicci":"MUNI","rsanit_08":"VII","tipo_est":"esidt","loc":"General Rodríguez","cp":"1748","direccion":"Luis M. Campos y A. Storni S/N Bo. Los Naranjos","tel":null,"email":null,"camas":0}},{"type":"Feature","id":"salud2012_publicos.191","geometry":{"type":"Point","coordinates":[-58.910633290999954,-34.62247897699996]},"geometry_name":"geom","properties":{"objectid":191,"nompar":"GENERAL RODRIGUEZ","nombre":"C.S. Nº 7 ALMIRANTE BROWN","codigo":"36400131","jurisdicci":"MUNI","rsanit_08":"VII","tipo_est":"esidt","loc":"General Rodríguez","cp":"1748","direccion":"Fitz Royd e/ Mercedes y Florida S/N Bo.Almirante *","tel":null,"email":null,"camas":0}},{"type":"Feature","id":"salud2012_publicos.192","geometry":{"type":"Point","coordinates":[-58.92409216599992,-34.62353451799993]},"geometry_name":"geom","properties":{"objectid":192,"nompar":"GENERAL RODRIGUEZ","nombre":"U.S. Nº 1 MALVINAS ARGENTINAS","codigo":"36400114","jurisdicci":"MUNI","rsanit_08":"VII","tipo_est":"esidt","loc":"General Rodríguez","cp":"1748","direccion":"Sargento Cabral y E. del Campo Bo. Las Malvinas","tel":null,"email":null,"camas":0}},{"type":"Feature","id":"salud2012_publicos.193","geometry":{"type":"Point","coordinates":[-58.9699753889999,-34.61071638799996]},"geometry_name":"geom","properties":{"objectid":193,"nompar":"GENERAL RODRIGUEZ","nombre":"U.S. Nº 6 VA. SAN MARTIN","codigo":"36400122","jurisdicci":"MUNI","rsanit_08":"VII","tipo_est":"esidt","loc":"General Rodríguez","cp":"1748","direccion":"Mariano Moreno e/Azurduy y Sargento Cabral Bo. Sa*","tel":null,"email":null,"camas":0}},{"type":"Feature","id":"salud2012_publicos.194","geometry":{"type":"Point","coordinates":[-58.94399335999992,-34.59112951399993]},"geometry_name":"geom","properties":{"objectid":194,"nompar":"GENERAL RODRIGUEZ","nombre":"U.S. Nº 14 ALMAFUERTE","codigo":"36400238","jurisdicci":"MUNI","rsanit_08":"VII","tipo_est":"esidt","loc":"General Rodríguez","cp":"1748","direccion":"Puerto Bahía Blanca y Puerto Anchorena S/N Bo. Al*","tel":null,"email":null,"camas":0}},{"type":"Feature","id":"salud2012_publicos.195","geometry":{"type":"Point","coordinates":[-58.927804830999946,-34.584788525999954]},"geometry_name":"geom","properties":{"objectid":195,"nompar":"GENERAL RODRIGUEZ","nombre":"C.S. Nº 10 VISTA LINDA","codigo":"36400181","jurisdicci":"MUNI","rsanit_08":"VII","tipo_est":"esidt","loc":"General Rodríguez","cp":"1748","direccion":"Colón e/San Martín y Santa María S/N Bo. Vista Li*","tel":null,"email":null,"camas":0}},{"type":"Feature","id":"salud2012_publicos.196","geometry":{"type":"Point","coordinates":[-58.9422407319999,-34.55518527799995]},"geometry_name":"geom","properties":{"objectid":196,"nompar":"GENERAL RODRIGUEZ","nombre":"U.S. Nº 11 MARABO","codigo":"36400203","jurisdicci":"MUNI","rsanit_08":"VII","tipo_est":"esidt","loc":"General Rodríguez","cp":"1748","direccion":"Arroyo Ceibal y Arroyo 40","tel":null,"email":null,"camas":0}},{"type":"Feature","id":"salud2012_publicos.197","geometry":{"type":"Point","coordinates":[-58.94864486699993,-34.67772543399991]},"geometry_name":"geom","properties":{"objectid":197,"nompar":"GENERAL RODRIGUEZ","nombre":"U.S. Nº 2 MI RINCON","codigo":"36400165","jurisdicci":"MUNI","rsanit_08":"VII","tipo_est":"esidt","loc":"General Rodríguez","cp":"1748","direccion":"San Fermín Ruta N° 24 Mi Rincón","tel":null,"email":null,"camas":0}},{"type":"Feature","id":"salud2012_publicos.198","geometry":{"type":"Point","coordinates":[-58.99995554499992,-34.60197232199994]},"geometry_name":"geom","properties":{"objectid":198,"nompar":"GENERAL RODRIGUEZ","nombre":"U.S. Nº 4 LA FRATERNIDAD","codigo":"36400068","jurisdicci":"MUNI","rsanit_08":"VII","tipo_est":"esidt","loc":"General Rodríguez","cp":"1748","direccion":"Velez  Sarfield y Alberdi S/N Bo. La Fraternidad","tel":null,"email":null,"camas":0}},{"type":"Feature","id":"salud2012_publicos.199","geometry":{"type":"Point","coordinates":[-59.0995717589999,-34.577504045999945]},"geometry_name":"geom","properties":{"objectid":199,"nompar":"LUJAN","nombre":"C.S. LANUSSE","codigo":"49700427","jurisdicci":"MUNI","rsanit_08":"VII","tipo_est":"esidt","loc":"Luján","cp":"6700","direccion":"Dr. Luppi y La Plata S/N Bo. Lanusse","tel":"011-1554502083","email":null,"camas":0}},{"type":"Feature","id":"salud2012_publicos.200","geometry":{"type":"Point","coordinates":[-59.10937639399992,-34.57478163099995]},"geometry_name":"geom","properties":{"objectid":200,"nompar":"LUJAN","nombre":"HTAL. MUN. NTRA. SRA. DE LUJAN","codigo":"49700141","jurisdicci":"MUNI","rsanit_08":"VII","tipo_est":"ecig","loc":"Luján","cp":null,"direccion":"San Martín N° 1750","tel":"02323-420437/4870","email":null,"camas":112}},{"type":"Feature","id":"salud2012_publicos.201","geometry":{"type":"Point","coordinates":[-59.12869158399991,-34.5795858269999]},"geometry_name":"geom","properties":{"objectid":201,"nompar":"LUJAN","nombre":"C.S. SAN CAYETANO","codigo":"49700231","jurisdicci":"MUNI","rsanit_08":"VII","tipo_est":"esidt","loc":"Luján","cp":"6700","direccion":"Alsina esq. Saavedra S/N","tel":"02323-429808","email":null,"camas":0}},{"type":"Feature","id":"salud2012_publicos.202","geometry":{"type":"Point","coordinates":[-59.136592607999944,-34.58172422799993]},"geometry_name":"geom","properties":{"objectid":202,"nompar":"LUJAN","nombre":"CAPS PADRE VARELA","codigo":"49700451","jurisdicci":"MUNI","rsanit_08":"VII","tipo_est":"esidt","loc":"Luján","cp":"6700","direccion":"El Maestro Argentino y Rivadavia S/N Bo. Padre Va*","tel":"02323-155828118","email":null,"camas":0}},{"type":"Feature","id":"salud2012_publicos.203","geometry":{"type":"Point","coordinates":[-59.14471944499991,-34.56877412599994]},"geometry_name":"geom","properties":{"objectid":203,"nompar":"LUJAN","nombre":"C.S. SANTA ELENA","codigo":"49700206","jurisdicci":"MUNI","rsanit_08":"VII","tipo_est":"esidt","loc":"Luján","cp":"6700","direccion":"San Lorenzo y Champagnat S/N Bo. Santa Elena","tel":"02323-429845","email":null,"camas":0}},{"type":"Feature","id":"salud2012_publicos.204","geometry":{"type":"Point","coordinates":[-59.12933933699992,-34.55247156999991]},"geometry_name":"geom","properties":{"objectid":204,"nompar":"LUJAN","nombre":"C.S. LA LOMA - ELIAS RAMILO","codigo":"49700265","jurisdicci":"MUNI","rsanit_08":"VII","tipo_est":"esidt","loc":"Luján","cp":"6700","direccion":"Los Helechos esq. Los Tulipanes S/N Bo. La Loma","tel":"011-1554501921","email":null,"camas":0}},{"type":"Feature","id":"salud2012_publicos.205","geometry":{"type":"Point","coordinates":[-59.19647224999994,-34.04577905499991]},"geometry_name":"geom","properties":{"objectid":205,"nompar":"ZARATE","nombre":"U.S. Dr. Aleotti","codigo":"88200083","jurisdicci":"MUNI","rsanit_08":"V","tipo_est":"esidt","loc":"Lima","cp":"2806","direccion":"Calle 6 N° 560","tel":"03487-480015","email":null,"camas":0}},{"type":"Feature","id":"salud2012_publicos.206","geometry":{"type":"Point","coordinates":[-59.02912213999991,-34.10877209999995]},"geometry_name":"geom","properties":{"objectid":206,"nompar":"ZARATE","nombre":"U.S. San Martín de Porres","codigo":"88200181","jurisdicci":"MUNI","rsanit_08":"V","tipo_est":"esidt","loc":"Zárate","cp":"2800","direccion":"Pellegrini N° 1940","tel":"03487-427663","email":null,"camas":0}},{"type":"Feature","id":"salud2012_publicos.207","geometry":{"type":"Point","coordinates":[-59.040405122999914,-34.10458270299995]},"geometry_name":"geom","properties":{"objectid":207,"nompar":"ZARATE","nombre":"S.P.A. Bº San Jacinto","codigo":"88200300","jurisdicci":"MUNI","rsanit_08":"V","tipo_est":"esidt","loc":"Zárate","cp":"2800","direccion":"José Hernández N° 85 Bo. San Jacinto","tel":"03487-480015","email":null,"camas":0}},{"type":"Feature","id":"salud2012_publicos.208","geometry":{"type":"Point","coordinates":[-59.03325253399993,-34.11171590899994]},"geometry_name":"geom","properties":{"objectid":208,"nompar":"ZARATE","nombre":"S.P.A. Bº Houssay","codigo":"88200288","jurisdicci":"MUNI","rsanit_08":"V","tipo_est":"esidt","loc":null,"cp":null,"direccion":null,"tel":null,"email":null,"camas":0}},{"type":"Feature","id":"salud2012_publicos.209","geometry":{"type":"Point","coordinates":[-59.029231377999906,-34.11439200299992]},"geometry_name":"geom","properties":{"objectid":209,"nompar":"ZARATE","nombre":"S.P.A. Bº M. Moreno","codigo":"88200563","jurisdicci":"MUNI","rsanit_08":"V","tipo_est":"esidt","loc":"Zárate","cp":"2800","direccion":"Islas Malvinas N° 1533 Bo. Mariano Moreno","tel":"-","email":null,"camas":0}},{"type":"Feature","id":"salud2012_publicos.210","geometry":{"type":"Point","coordinates":[-59.0381235669999,-34.08074345399996]},"geometry_name":"geom","properties":{"objectid":210,"nompar":"ZARATE","nombre":"S.P.A. DR. P. Marina","codigo":"88200377","jurisdicci":"MUNI","rsanit_08":"V","tipo_est":"esidt","loc":"Zárate","cp":"2800","direccion":"Félix Pagola y Balcarce S/N Bo.Villa Angus","tel":"-","email":null,"camas":0}},{"type":"Feature","id":"salud2012_publicos.211","geometry":{"type":"Point","coordinates":[-59.1528774169999,-34.54873854099992]},"geometry_name":"geom","properties":{"objectid":211,"nompar":"LUJAN","nombre":"C.S. SAN FRANCISCO","codigo":"49700109","jurisdicci":"MUNI","rsanit_08":"VII","tipo_est":"esidt","loc":"Luján","cp":"6700","direccion":"Uruguay y República Argentina S/N Bo. San Francis*","tel":"02323-429965","email":null,"camas":0}},{"type":"Feature","id":"salud2012_publicos.212","geometry":{"type":"Point","coordinates":[-59.13021818899995,-34.541996411999946]},"geometry_name":"geom","properties":{"objectid":212,"nompar":"LUJAN","nombre":"C.S. SAN PEDRO","codigo":"49700214","jurisdicci":"MUNI","rsanit_08":"VII","tipo_est":"esidt","loc":"Luján","cp":"6700","direccion":"Las Margaritas S/N Bo. San Pedro","tel":"02323-429872","email":null,"camas":0}},{"type":"Feature","id":"salud2012_publicos.213","geometry":{"type":"Point","coordinates":[-59.1161357979999,-34.551344581999956]},"geometry_name":"geom","properties":{"objectid":213,"nompar":"LUJAN","nombre":"C.S. JUAN XXIII","codigo":"49700257","jurisdicci":"MUNI","rsanit_08":"VII","tipo_est":"esidt","loc":"Luján","cp":"6700","direccion":"Nicolás Repetto y La Plata","tel":"02323-429873","email":null,"camas":0}},{"type":"Feature","id":"salud2012_publicos.214","geometry":{"type":"Point","coordinates":[-59.11479353499993,-34.55836842899993]},"geometry_name":"geom","properties":{"objectid":214,"nompar":"LUJAN","nombre":"CAPS EL MILAGRO","codigo":"49700389","jurisdicci":"MUNI","rsanit_08":"VII","tipo_est":"esidt","loc":"Luján","cp":"6700","direccion":"San Antonio S/N Bo. El Milagro","tel":"-","email":null,"camas":0}},{"type":"Feature","id":"salud2012_publicos.215","geometry":{"type":"Point","coordinates":[-59.11889275099992,-34.55852170199995]},"geometry_name":"geom","properties":{"objectid":215,"nompar":"LUJAN","nombre":"C.S. SAN BERNARDO","codigo":"49700397","jurisdicci":"MUNI","rsanit_08":"VII","tipo_est":"esidt","loc":"Luján","cp":"6700","direccion":"Joaquín V. Gonzalez S/N Bo. San Bernardo","tel":"-","email":null,"camas":0}},{"type":"Feature","id":"salud2012_publicos.216","geometry":{"type":"Point","coordinates":[-59.09431158399991,-34.56427333899995]},"geometry_name":"geom","properties":{"objectid":216,"nompar":"LUJAN","nombre":"CAPS AMEGHINO","codigo":"49700435","jurisdicci":"MUNI","rsanit_08":"VII","tipo_est":"esidt","loc":"Luján","cp":"6700","direccion":"José Ingenieros S/N","tel":"02323-155828106","email":null,"camas":0}},{"type":"Feature","id":"salud2012_publicos.217","geometry":{"type":"Point","coordinates":[-58.954941979999944,-34.61309784999992]},"geometry_name":"geom","properties":{"objectid":217,"nompar":"GENERAL RODRIGUEZ","nombre":"S. CENTRAL SECRET.SALUD Y ACCION SOCIAL","codigo":"36400033","jurisdicci":"MUNI","rsanit_08":"VII","tipo_est":"esidt","loc":"General Rodríguez","cp":"1748","direccion":"Dr. Cherubin N° 450","tel":"0237-4840557","email":null,"camas":0}},{"type":"Feature","id":"salud2012_publicos.218","geometry":{"type":"Point","coordinates":[-58.91028483999992,-34.46109433499993]},"geometry_name":"geom","properties":{"objectid":218,"nompar":"PILAR","nombre":"HTAL. CENTRAL DE PILAR JUAN SANGUINETTI","codigo":"63800031","jurisdicci":"MUNI","rsanit_08":"V","tipo_est":"ecig","loc":"Pilar","cp":"1629","direccion":"Victor Vergani N° 860","tel":"02322-420508/664000","email":null,"camas":138}},{"type":"Feature","id":"salud2012_publicos.219","geometry":{"type":"Point","coordinates":[-58.83973462599994,-34.493833594999955]},"geometry_name":"geom","properties":{"objectid":219,"nompar":"PILAR","nombre":"HTAL. M.I. CDORO. HUGO MEISNER","codigo":"63800481","jurisdicci":"MUNI","rsanit_08":"V","tipo_est":"eciemi","loc":"Presidente  Derqui","cp":"1635","direccion":"Iparraguirre N° 239","tel":"02322-485201/02","email":"hospitalsanguinetti@yahoo.com.ar","camas":72}},{"type":"Feature","id":"salud2012_publicos.220","geometry":{"type":"Point","coordinates":[-58.97383809799993,-34.44408368799992]},"geometry_name":"geom","properties":{"objectid":220,"nompar":"PILAR","nombre":"C.S. MARIA AUXILIADORA (W. Morris)","codigo":"63800235","jurisdicci":"MUNI","rsanit_08":"V","tipo_est":"esidt","loc":"Del Viso","cp":"1669","direccion":"Santa María N° 2500","tel":"02320-472200","email":null,"camas":0}},{"type":"Feature","id":"salud2012_publicos.221","geometry":{"type":"Point","coordinates":[-58.99184351799994,-34.43715704899995]},"geometry_name":"geom","properties":{"objectid":221,"nompar":"PILAR","nombre":"C.S. NTRA. SRA. DE FATIMA","codigo":"63800189","jurisdicci":"MUNI","rsanit_08":"V","tipo_est":"esidt","loc":"Fátima","cp":"1633","direccion":"Isla Jorge N° 210","tel":"02322-490701","email":null,"camas":0}},{"type":"Feature","id":"salud2012_publicos.222","geometry":{"type":"Point","coordinates":[-58.828606771999944,-34.45335037099994]},"geometry_name":"geom","properties":{"objectid":222,"nompar":"PILAR","nombre":"U.S. LA LONJA","codigo":"63800065","jurisdicci":"MUNI","rsanit_08":"V","tipo_est":"esidt","loc":"La Lonja","cp":"1629","direccion":"Ramos Mejias N° 2634","tel":"02322-470144","email":null,"camas":0}},{"type":"Feature","id":"salud2012_publicos.223","geometry":{"type":"Point","coordinates":[-58.9223288469999,-34.438308235999955]},"geometry_name":"geom","properties":{"objectid":223,"nompar":"PILAR","nombre":"C.S. LA LOMITA","codigo":"63800324","jurisdicci":"MUNI","rsanit_08":"V","tipo_est":"esidt","loc":"Pilar","cp":"1629","direccion":"Las Alondras N° 143","tel":"-","email":null,"camas":0}},{"type":"Feature","id":"salud2012_publicos.224","geometry":{"type":"Point","coordinates":[-58.874403653999934,-34.42259917899992]},"geometry_name":"geom","properties":{"objectid":224,"nompar":"PILAR","nombre":"U.S. PTE. DERQUI","codigo":"63800014","jurisdicci":"MUNI","rsanit_08":"V","tipo_est":"esidt","loc":"Presidente  Derqui","cp":"1635","direccion":"Sarmiento N° 1178","tel":null,"email":null,"camas":0}},{"type":"Feature","id":"salud2012_publicos.225","geometry":{"type":"Point","coordinates":[-58.79122643599993,-34.45178499199994]},"geometry_name":"geom","properties":{"objectid":225,"nompar":"PILAR","nombre":"HTAL. MUN. Pediatrico Federico Falcon","codigo":"63800205","jurisdicci":"MUNI","rsanit_08":"V","tipo_est":"eciep","loc":"Del Viso","cp":"1669","direccion":"Polonia y Arata","tel":null,"email":"hospitalmeisner@yahoo.com.ar","camas":35}},{"type":"Feature","id":"salud2012_publicos.226","geometry":{"type":"Point","coordinates":[-58.83481462399993,-34.78584635899995]},"geometry_name":"geom","properties":{"objectid":226,"nompar":"MARCOS PAZ","nombre":"HOGAR Santa Teresa de Jornet","codigo":"52500102","jurisdicci":"MUNI","rsanit_08":"VII","tipo_est":"ecieg","loc":"Marcos Paz","cp":"1727","direccion":"Aritóbulo del Valle N° 2226","tel":"0220-4774417","email":"hospital-administracion@municipiomarcospaz.gov.ar","camas":20}},{"type":"Feature","id":"salud2012_publicos.227","geometry":{"type":"Point","coordinates":[-58.95367177799994,-34.615656464999915]},"geometry_name":"geom","properties":{"objectid":227,"nompar":"GENERAL RODRIGUEZ","nombre":"H.Z.G.A. VICENTE LOPEZ Y PLANES","codigo":"36400041","jurisdicci":"PROV","rsanit_08":"VII","tipo_est":"ecig","loc":"General Rodríguez","cp":"1748","direccion":"Alem y 25 de Mayo","tel":"0237-4841782","email":null,"camas":358}},{"type":"Feature","id":"salud2012_publicos.228","geometry":{"type":"Point","coordinates":[-59.07405744099992,-34.492358924999905]},"geometry_name":"geom","properties":{"objectid":228,"nompar":"LUJAN","nombre":"H.I.E.NEUROPSQ. COLONIA Dr. CABRED","codigo":"49700150","jurisdicci":"PROV","rsanit_08":"VII","tipo_est":"eciesm","loc":"Open Door","cp":"6708","direccion":"Av. Dr. Cabred y Filiberto S/N","tel":"02323-4966515/6682/6699/6405","email":null,"camas":1173}},{"type":"Feature","id":"salud2012_publicos.229","geometry":{"type":"Point","coordinates":[-58.785445214999925,-34.43145285599991]},"geometry_name":"geom","properties":{"objectid":229,"nompar":"PILAR","nombre":"U.S. Los Cachorros","codigo":"63800219","jurisdicci":"MUNI","rsanit_08":"V","tipo_est":"esidt","loc":"Del Viso","cp":"1669","direccion":"Las Margaritas S/N","tel":null,"email":null,"camas":0}},{"type":"Feature","id":"salud2012_publicos.230","geometry":{"type":"Point","coordinates":[-58.786497390999955,-34.46818919499992]},"geometry_name":"geom","properties":{"objectid":230,"nompar":"PILAR","nombre":"C.S. Villa del Carmen-Nahuel Lorenzo","codigo":"63800511","jurisdicci":"MUNI","rsanit_08":"V","tipo_est":"esidt","loc":"Del Viso","cp":"1669","direccion":"Juan XXIII esq. Leguizamón","tel":null,"email":null,"camas":0}},